b'0.00,0.00,280921,,,A*63\r\n'1
b'0.00,0.00,280921,,,A*63\r\n'1
b'$GPGGA,074107.000,2447.1843,N,12059.6856,E,1,09,0.9,97.8,M,15.0,M,,0000*62\r\n'1
b'$GPGGA,074107.000,2447.1843,N,12059.6856,E,1,09,0.9,97.8,M,15.0,M,,0000*62\r\n'1
b'$GPGGA,074107.000,2447.1843,N,12059.6856,E,1,09,0.9,97.8,M,15.0,M,,0000*62\r\n'1
b'$GPGSA,A,3,23,57,24,18,10,12,25,15,32,,,,2.0,0.9,1.7*33\r\n'1
b'$GPGSA,A,3,23,57,24,18,10,12,25,15,32,,,,2.0,0.9,1.7*33\r\n'1
b'$GPRMC,074107.000,A,2447.1843,N,12059.6856,E,0.00,0.00,280921,,,A*62\r\n'1
b'$GPRMC,074107.000,A,2447.1843,N,12059.6856,E,0.00,0.00,280921,,,A*62\r\n'1
b'$GPRMC,074107.000,A,2447.1843,N,12059.6856,E,0.00,0.00,280921,,,A*62\r\n'1
b'$GPGGA,074108.000,2447.1843,N,12059.6856,E,1,09,0.9,97.8,M,15.0,M,,0000*6D\r\n'1
b'$GPGGA,074108.000,2447.1843,N,12059.6856,E,1,09,0.9,97.8,M,15.0,M,,0000*6D\r\n'1
b'$GPGSA,A,3,23,57,24,18,10,12,25,15,32,,,,2.0,0.9,1.7*33\r\n'1
b'$GPGSA,A,3,23,57,24,18,10,12,25,15,32,,,,2.0,0.9,1.7*33\r\n'1
b'$GPGSA,A,3,23,57,24,18,10,12,25,15,32,,,,2.0,0.9,1.7*33\r\n'1
b'$GPRMC,074108.000,A,2447.1843,N,12059.6856,E,0.00,0.00,280921,,,A*6D\r\n'1
b'$GPRMC,074108.000,A,2447.1843,N,12059.6856,E,0.00,0.00,280921,,,A*6D\r\n'1
b'$GPGGA,074109.000,2447.1843,N,12059.6856,E,1,09,0.9,97.8,M,15.0,M,,0000*6C\r\n'1
b'$GPGGA,074109.000,2447.1843,N,12059.6856,E,1,09,0.9,97.8,M,15.0,M,,0000*6C\r\n'1
b'$GPGGA,074109.000,2447.1843,N,12059.6856,E,1,09,0.9,97.8,M,15.0,M,,0000*6C\r\n'1
b'$GPGSA,A,3,23,57,24,18,10,12,25,15,32,,,,2.0,0.9,1.7*33\r\n'1
b'$GPGSA,A,3,23,57,24,18,10,12,25,15,32,,,,2.0,0.9,1.7*33\r\n'1
b'$GPRMC,074109.000,A,2447.1843,N,12059.6856,E,0.00,0.00,280921,,,A*6C\r\n'1
b'$GPRMC,074109.000,A,2447.1843,N,12059.6856,E,0.00,0.00,280921,,,A*6C\r\n'1
b'$GPRMC,074109.000,A,2447.1843,N,12059.6856,E,0.00,0.00,280921,,,A*6C\r\n'1
b'$GPGGA,074110.000,2447.1843,N,12059.6856,E,1,09,0.9,97.8,M,15.0,M,,0000*64\r\n'1
b'$GPGGA,074110.000,2447.1843,N,12059.6856,E,1,09,0.9,97.8,M,15.0,M,,0000*64\r\n'1
b'$GPGSA,A,3,23,57,24,18,10,12,25,15,32,,,,2.0,0.9,1.7*33\r\n'1
b'$GPGSA,A,3,23,57,24,18,10,12,25,15,32,,,,2.0,0.9,1.7*33\r\n'1
b'$GPGSA,A,3,23,57,24,18,10,12,25,15,32,,,,2.0,0.9,1.7*33\r\n'1
b'$GPRMC,074110.000,A,2447.1843,N,12059.6856,E,0.00,0.00,280921,,,A*64\r\n'1
b'$GPRMC,074110.000,A,2447.1843,N,12059.6856,E,0.00,0.00,280921,,,A*64\r\n'1
b'$GPGGA,074111.000,2447.1843,N,12059.6856,E,1,09,0.9,97.8,M,15.0,M,,0000*65\r\n'1
b'$GPGGA,074111.000,2447.1843,N,12059.6856,E,1,09,0.9,97.8,M,15.0,M,,0000*65\r\n'1
b'$GPGGA,074111.000,2447.1843,N,12059.6856,E,1,09,0.9,97.8,M,15.0,M,,0000*65\r\n'1
b'$GPGSA,A,3,23,57,24,18,10,12,25,15,32,,,,2.0,0.9,1.7*33\r\n'1
b'$GPGSA,A,3,23,57,24,18,10,12,25,15,32,,,,2.0,0.9,1.7*33\r\n'1
b'$GPGSV,3,1,10,23,72,359,36,57,64,056,37,24,52,033,42,18,42,212,39*70\r\n'1
b'$GPGSV,3,1,10,23,72,359,36,57,64,056,37,24,52,033,42,18,42,212,39*70\r\n'1
b'$GPGSV,3,1,10,23,72,359,36,57,64,056,37,24,52,033,42,18,42,212,39*70\r\n'1
b'$GPGSV,3,2,10,10,38,326,39,12,33,125,34,25,26,161,36,15,25,067,39*74\r\n'1
b'$GPGSV,3,2,10,10,38,326,39,12,33,125,34,25,26,161,36,15,25,067,39*74\r\n'1
b'$GPGSV,3,3,10,32,20,288,28,05,08,130,*7C\r\n'1
b'$GPGSV,3,3,10,32,20,288,28,05,08,130,*7C\r\n'1
b'$GPGSV,3,3,10,32,20,288,28,05,08,130,*7C\r\n'1
b'$GPRMC,074111.000,A,2447.1843,N,12059.6856,E,0.00,0.00,280921,,,A*65\r\n'1
b'$GPRMC,074111.000,A,2447.1843,N,12059.6856,E,0.00,0.00,280921,,,A*65\r\n'1
b'$GPGGA,074112.000,2447.1843,N,12059.6856,E,1,09,0.9,97.8,M,15.0,M,,0000*66\r\n'1
b'$GPGGA,074112.000,2447.1843,N,12059.6856,E,1,09,0.9,97.8,M,15.0,M,,0000*66\r\n'1
b'$GPGGA,074112.000,2447.1843,N,12059.6856,E,1,09,0.9,97.8,M,15.0,M,,0000*66\r\n'1
b'$GPGSA,A,3,23,57,24,18,10,12,25,15,32,,,,2.0,0.9,1.7*33\r\n'1
b'$GPGSA,A,3,23,57,24,18,10,12,25,15,32,,,,2.0,0.9,1.7*33\r\n'1
b'$GPRMC,074112.000,A,2447.1843,N,12059.6856,E,0.00,0.00,280921,,,A*66\r\n'1
b'$GPRMC,074112.000,A,2447.1843,N,12059.6856,E,0.00,0.00,280921,,,A*66\r\n'1
b'$GPRMC,074112.000,A,2447.1843,N,12059.6856,E,0.00,0.00,280921,,,A*66\r\n'1
b'$GPGGA,074113.000,2447.1843,N,12059.6856,E,1,09,0.9,97.8,M,15.0,M,,0000*67\r\n'1
b'$GPGGA,074113.000,2447.1843,N,12059.6856,E,1,09,0.9,97.8,M,15.0,M,,0000*67\r\n'1
b'$GPGSA,A,3,23,57,24,18,10,12,25,15,32,,,,2.0,0.9,1.7*33\r\n'1
b'$GPGSA,A,3,23,57,24,18,10,12,25,15,32,,,,2.0,0.9,1.7*33\r\n'1
b'$GPGSA,A,3,23,57,24,18,10,12,25,15,32,,,,2.0,0.9,1.7*33\r\n'1
b'$GPRMC,074113.000,A,2447.1843,N,12059.6856,E,0.00,0.00,280921,,,A*67\r\n'1
b'$GPRMC,074113.000,A,2447.1843,N,12059.6856,E,0.00,0.00,280921,,,A*67\r\n'1
b'$GPGGA,074114.000,2447.1843,N,12059.6856,E,1,09,0.9,97.8,M,15.0,M,,0000*60\r\n'1
b'$GPGGA,074114.000,2447.1843,N,12059.6856,E,1,09,0.9,97.8,M,15.0,M,,0000*60\r\n'1
b'$GPGGA,074114.000,2447.1843,N,12059.6856,E,1,09,0.9,97.8,M,15.0,M,,0000*60\r\n'1
b'$GPGSA,A,3,23,57,24,18,10,12,25,15,32,,,,2.0,0.9,1.7*33\r\n'1
b'$GPGSA,A,3,23,57,24,18,10,12,25,15,32,,,,2.0,0.9,1.7*33\r\n'1
b'$GPRMC,074114.000,A,2447.1843,N,12059.6856,E,0.00,0.00,280921,,,A*60\r\n'1
b'$GPRMC,074114.000,A,2447.1843,N,12059.6856,E,0.00,0.00,280921,,,A*60\r\n'1
b'$GPRMC,074114.000,A,2447.1843,N,12059.6856,E,0.00,0.00,280921,,,A*60\r\n'1
b'$GPGGA,074115.000,2447.1843,N,12059.6856,E,1,09,0.9,97.8,M,15.0,M,,0000*61\r\n'1
b'$GPGGA,074115.000,2447.1843,N,12059.6856,E,1,09,0.9,97.8,M,15.0,M,,0000*61\r\n'1
b'$GPGSA,A,3,23,57,24,18,10,12,25,15,32,,,,2.0,0.9,1.7*33\r\n'1
b'$GPGSA,A,3,23,57,24,18,10,12,25,15,32,,,,2.0,0.9,1.7*33\r\n'1
b'$GPGSA,A,3,23,57,24,18,10,12,25,15,32,,,,2.0,0.9,1.7*33\r\n'1
b'$GPRMC,074115.000,A,2447.1843,N,12059.6856,E,0.00,0.00,280921,,,A*61\r\n'1
b'$GPRMC,074115.000,A,2447.1843,N,12059.6856,E,0.00,0.00,280921,,,A*61\r\n'1
b'$GPGGA,074116.000,2447.1843,N,12059.6856,E,1,09,0.9,97.8,M,15.0,M,,0000*62\r\n'1
b'$GPGGA,074116.000,2447.1843,N,12059.6856,E,1,09,0.9,97.8,M,15.0,M,,0000*62\r\n'1
b'$GPGGA,074116.000,2447.1843,N,12059.6856,E,1,09,0.9,97.8,M,15.0,M,,0000*62\r\n'1
b'$GPGSA,A,3,23,57,24,18,10,12,25,15,32,,,,2.0,0.9,1.7*33\r\n'1
b'$GPGSA,A,3,23,57,24,18,10,12,25,15,32,,,,2.0,0.9,1.7*33\r\n'1
b'$GPGSV,3,1,10,23,72,359,35,57,64,056,36,24,52,033,41,18,42,212,38*70\r\n'1
b'$GPGSV,3,1,10,23,72,359,35,57,64,056,36,24,52,033,41,18,42,212,38*70\r\n'1
b'$GPGSV,3,1,10,23,72,359,35,57,64,056,36,24,52,033,41,18,42,212,38*70\r\n'1
b'$GPGSV,3,2,10,10,38,326,38,12,33,125,35,25,26,161,35,15,25,067,38*76\r\n'1
b'$GPGSV,3,2,10,10,38,326,38,12,33,125,35,25,26,161,35,15,25,067,38*76\r\n'1
b'$GPGSV,3,3,10,32,20,288,29,05,08,130,*7D\r\n'1
b'$GPGSV,3,3,10,32,20,288,29,05,08,130,*7D\r\n'1
b'$GPGSV,3,3,10,32,20,288,29,05,08,130,*7D\r\n'1
b'$GPRMC,074116.000,A,2447.1843,N,12059.6856,E,0.00,0.00,280921,,,A*62\r\n'1
b'$GPRMC,074116.000,A,2447.1843,N,12059.6856,E,0.00,0.00,280921,,,A*62\r\n'1
b'$GPGGA,074117.000,2447.1843,N,12059.6856,E,1,09,0.9,97.8,M,15.0,M,,0000*63\r\n'1
b'$GPGGA,074117.000,2447.1843,N,12059.6856,E,1,09,0.9,97.8,M,15.0,M,,0000*63\r\n'1
b'$GPGGA,074117.000,2447.1843,N,12059.6856,E,1,09,0.9,97.8,M,15.0,M,,0000*63\r\n'1
b'$GPGSA,A,3,23,57,24,18,10,12,25,15,32,,,,2.0,0.9,1.7*33\r\n'1
b'$GPGSA,A,3,23,57,24,18,10,12,25,15,32,,,,2.0,0.9,1.7*33\r\n'1
b'$GPRMC,074117.000,A,2447.1843,N,12059.6856,E,0.00,0.00,280921,,,A*63\r\n'1
b'$GPRMC,074117.000,A,2447.1843,N,12059.6856,E,0.00,0.00,280921,,,A*63\r\n'1
b'$GPRMC,074117.000,A,2447.1843,N,12059.6856,E,0.00,0.00,280921,,,A*63\r\n'1
b'$GPGGA,074118.000,2447.1843,N,12059.6856,E,1,09,0.9,97.8,M,15.0,M,,0000*6C\r\n'1
b'$GPGGA,074118.000,2447.1843,N,12059.6856,E,1,09,0.9,97.8,M,15.0,M,,0000*6C\r\n'1
b'$GPGSA,A,3,23,57,24,18,10,12,25,15,32,,,,2.0,0.9,1.7*33\r\n'1
b'$GPGSA,A,3,23,57,24,18,10,12,25,15,32,,,,2.0,0.9,1.7*33\r\n'1
b'$GPGSA,A,3,23,57,24,18,10,12,25,15,32,,,,2.0,0.9,1.7*33\r\n'1
b'$GPRMC,074118.000,A,2447.1843,N,12059.6856,E,0.00,0.00,280921,,,A*6C\r\n'1
b'$GPRMC,074118.000,A,2447.1843,N,12059.6856,E,0.00,0.00,280921,,,A*6C\r\n'1
b'$GPGGA,074119.000,2447.1843,N,12059.6856,E,1,09,0.9,97.8,M,15.0,M,,0000*6D\r\n'1
b'$GPGGA,074119.000,2447.1843,N,12059.6856,E,1,09,0.9,97.8,M,15.0,M,,0000*6D\r\n'1
b'$GPGGA,074119.000,2447.1843,N,12059.6856,E,1,09,0.9,97.8,M,15.0,M,,0000*6D\r\n'1
b'$GPGSA,A,3,23,57,24,18,10,12,25,15,32,,,,2.0,0.9,1.7*33\r\n'1
b'$GPGSA,A,3,23,57,24,18,10,12,25,15,32,,,,2.0,0.9,1.7*33\r\n'1
b'$GPRMC,074119.000,A,2447.1843,N,12059.6856,E,0.00,0.00,280921,,,A*6D\r\n'1
b'$GPRMC,074119.000,A,2447.1843,N,12059.6856,E,0.00,0.00,280921,,,A*6D\r\n'1
b'$GPRMC,074119.000,A,2447.1843,N,12059.6856,E,0.00,0.00,280921,,,A*6D\r\n'1
b'$GPGGA,074120.000,2447.1843,N,12059.6856,E,1,09,0.9,97.8,M,15.0,M,,0000*67\r\n'1
b'$GPGGA,074120.000,2447.1843,N,12059.6856,E,1,09,0.9,97.8,M,15.0,M,,0000*67\r\n'1
b'$GPGSA,A,3,23,57,24,18,10,12,25,15,32,,,,2.0,0.9,1.7*33\r\n'1
b'$GPGSA,A,3,23,57,24,18,10,12,25,15,32,,,,2.0,0.9,1.7*33\r\n'1
b'$GPGSA,A,3,23,57,24,18,10,12,25,15,32,,,,2.0,0.9,1.7*33\r\n'1
b'$GPRMC,074120.000,A,2447.1843,N,12059.6856,E,0.00,0.00,280921,,,A*67\r\n'1
b'$GPRMC,074120.000,A,2447.1843,N,12059.6856,E,0.00,0.00,280921,,,A*67\r\n'1
b'$GPGGA,074121.000,2447.1843,N,12059.6856,E,1,09,0.9,97.8,M,15.0,M,,0000*66\r\n'1
b'$GPGGA,074121.000,2447.1843,N,12059.6856,E,1,09,0.9,97.8,M,15.0,M,,0000*66\r\n'1
b'$GPGGA,074121.000,2447.1843,N,12059.6856,E,1,09,0.9,97.8,M,15.0,M,,0000*66\r\n'1
b'$GPGSA,A,3,23,57,24,18,10,12,25,15,32,,,,2.0,0.9,1.7*33\r\n'1
b'$GPGSA,A,3,23,57,24,18,10,12,25,15,32,,,,2.0,0.9,1.7*33\r\n'1
b'$GPGSV,3,1,10,23,72,359,35,57,64,056,36,24,52,033,40,18,42,212,37*7E\r\n'1
b'$GPGSV,3,1,10,23,72,359,35,57,64,056,36,24,52,033,40,18,42,212,37*7E\r\n'1
b'$GPGSV,3,1,10,23,72,359,35,57,64,056,36,24,52,033,40,18,42,212,37*7E\r\n'1
b'$GPGSV,3,2,10,10,38,326,37,12,33,125,35,25,26,161,35,15,25,067,37*76\r\n'1
b'$GPGSV,3,2,10,10,38,326,37,12,33,125,35,25,26,161,35,15,25,067,37*76\r\n'1
b'$GPGSV,3,3,10,32,20,288,29,05,08,130,*7D\r\n'1
b'$GPGSV,3,3,10,32,20,288,29,05,08,130,*7D\r\n'1
b'$GPGSV,3,3,10,32,20,288,29,05,08,130,*7D\r\n'1
b'$GPRMC,074121.000,A,2447.1843,N,12059.6856,E,0.00,0.00,280921,,,A*66\r\n'1
b'$GPRMC,074121.000,A,2447.1843,N,12059.6856,E,0.00,0.00,280921,,,A*66\r\n'1
b'$GPGGA,074122.000,2447.1843,N,12059.6856,E,1,09,0.9,97.8,M,15.0,M,,0000*65\r\n'1
b'$GPGGA,074122.000,2447.1843,N,12059.6856,E,1,09,0.9,97.8,M,15.0,M,,0000*65\r\n'1
b'$GPGGA,074122.000,2447.1843,N,12059.6856,E,1,09,0.9,97.8,M,15.0,M,,0000*65\r\n'1
b'$GPGSA,A,3,23,57,24,18,10,12,25,15,32,,,,2.0,0.9,1.7*33\r\n'1
b'$GPGSA,A,3,23,57,24,18,10,12,25,15,32,,,,2.0,0.9,1.7*33\r\n'1
b'$GPRMC,074122.000,A,2447.1843,N,12059.6856,E,0.00,0.00,280921,,,A*65\r\n'1
b'$GPRMC,074122.000,A,2447.1843,N,12059.6856,E,0.00,0.00,280921,,,A*65\r\n'1
b'$GPRMC,074122.000,A,2447.1843,N,12059.6856,E,0.00,0.00,280921,,,A*65\r\n'1
b'$GPGGA,074123.000,2447.1843,N,12059.6856,E,1,09,0.9,97.8,M,15.0,M,,0000*64\r\n'1
b'$GPGGA,074123.000,2447.1843,N,12059.6856,E,1,09,0.9,97.8,M,15.0,M,,0000*64\r\n'1
b'$GPGSA,A,3,23,57,24,18,10,12,25,15,32,,,,2.0,0.9,1.7*33\r\n'1
b'$GPGSA,A,3,23,57,24,18,10,12,25,15,32,,,,2.0,0.9,1.7*33\r\n'1
b'$GPGSA,A,3,23,57,24,18,10,12,25,15,32,,,,2.0,0.9,1.7*33\r\n'1
b'$GPRMC,074123.000,A,2447.1843,N,12059.6856,E,0.00,0.00,280921,,,A*64\r\n'1
b'$GPRMC,074123.000,A,2447.1843,N,12059.6856,E,0.00,0.00,280921,,,A*64\r\n'1
b'$GPGGA,074124.000,2447.1843,N,12059.6856,E,1,09,0.9,97.8,M,15.0,M,,0000*63\r\n'1
b'$GPGGA,074124.000,2447.1843,N,12059.6856,E,1,09,0.9,97.8,M,15.0,M,,0000*63\r\n'1
b'$GPGGA,074124.000,2447.1843,N,12059.6856,E,1,09,0.9,97.8,M,15.0,M,,0000*63\r\n'1
b'$GPGSA,A,3,23,57,24,18,10,12,25,15,32,,,,2.0,0.9,1.7*33\r\n'1
b'$GPGSA,A,3,23,57,24,18,10,12,25,15,32,,,,2.0,0.9,1.7*33\r\n'1
b'$GPRMC,074124.000,A,2447.1843,N,12059.6856,E,0.00,0.00,280921,,,A*63\r\n'1
b'$GPRMC,074124.000,A,2447.1843,N,12059.6856,E,0.00,0.00,280921,,,A*63\r\n'1
b'$GPRMC,074124.000,A,2447.1843,N,12059.6856,E,0.00,0.00,280921,,,A*63\r\n'1
b'$GPGGA,074125.000,2447.1843,N,12059.6856,E,1,09,0.9,97.8,M,15.0,M,,0000*62\r\n'1
b'$GPGGA,074125.000,2447.1843,N,12059.6856,E,1,09,0.9,97.8,M,15.0,M,,0000*62\r\n'1
b'$GPGSA,A,3,23,57,24,18,10,12,25,15,32,,,,2.0,0.9,1.7*33\r\n'1
b'$GPGSA,A,3,23,57,24,18,10,12,25,15,32,,,,2.0,0.9,1.7*33\r\n'1
b'$GPGSA,A,3,23,57,24,18,10,12,25,15,32,,,,2.0,0.9,1.7*33\r\n'1
b'$GPRMC,074125.000,A,2447.1843,N,12059.6856,E,0.00,0.00,280921,,,A*62\r\n'1
b'$GPRMC,074125.000,A,2447.1843,N,12059.6856,E,0.00,0.00,280921,,,A*62\r\n'1
b'$GPGGA,074126.000,2447.1843,N,12059.6856,E,1,09,0.9,97.8,M,15.0,M,,0000*61\r\n'1
b'$GPGGA,074126.000,2447.1843,N,12059.6856,E,1,09,0.9,97.8,M,15.0,M,,0000*61\r\n'1
b'$GPGGA,074126.000,2447.1843,N,12059.6856,E,1,09,0.9,97.8,M,15.0,M,,0000*61\r\n'1
b'$GPGSA,A,3,23,57,24,18,10,12,25,15,32,,,,2.0,0.9,1.7*33\r\n'1
b'$GPGSA,A,3,23,57,24,18,10,12,25,15,32,,,,2.0,0.9,1.7*33\r\n'1
b'$GPGSV,3,1,10,23,72,359,35,57,64,056,35,24,52,033,40,18,42,212,37*7D\r\n'1
b'$GPGSV,3,1,10,23,72,359,35,57,64,056,35,24,52,033,40,18,42,212,37*7D\r\n'1
b'$GPGSV,3,1,10,23,72,359,35,57,64,056,35,24,52,033,40,18,42,212,37*7D\r\n'1
b'$GPGSV,3,2,10,10,38,326,37,12,33,125,35,25,26,161,35,15,25,067,37*76\r\n'1
b'$GPGSV,3,2,10,10,38,326,37,12,33,125,35,25,26,161,35,15,25,067,37*76\r\n'1
b'$GPGSV,3,3,10,32,20,288,29,05,08,130,*7D\r\n'1
b'$GPGSV,3,3,10,32,20,288,29,05,08,130,*7D\r\n'1
b'$GPGSV,3,3,10,32,20,288,29,05,08,130,*7D\r\n'1
b'$GPRMC,074126.000,A,2447.1843,N,12059.6856,E,0.00,0.00,280921,,,A*61\r\n'1
b'$GPRMC,074126.000,A,2447.1843,N,12059.6856,E,0.00,0.00,280921,,,A*61\r\n'1
b'$GPGGA,074127.000,2447.1843,N,12059.6856,E,1,09,0.9,97.8,M,15.0,M,,0000*60\r\n'1
b'$GPGGA,074127.000,2447.1843,N,12059.6856,E,1,09,0.9,97.8,M,15.0,M,,0000*60\r\n'1
b'$GPGGA,074127.000,2447.1843,N,12059.6856,E,1,09,0.9,97.8,M,15.0,M,,0000*60\r\n'1
b'$GPGSA,A,3,23,57,24,18,10,12,25,15,32,,,,2.0,0.9,1.7*33\r\n'1
b'$GPGSA,A,3,23,57,24,18,10,12,25,15,32,,,,2.0,0.9,1.7*33\r\n'1
b'$GPRMC,074127.000,A,2447.1843,N,12059.6856,E,0.00,0.00,280921,,,A*60\r\n'1
b'$GPRMC,074127.000,A,2447.1843,N,12059.6856,E,0.00,0.00,280921,,,A*60\r\n'1
b'$GPRMC,074127.000,A,2447.1843,N,12059.6856,E,0.00,0.00,280921,,,A*60\r\n'1
b'$GPGGA,074128.000,2447.1843,N,12059.6856,E,1,09,0.9,97.7,M,15.0,M,,0000*60\r\n'1
b'$GPGGA,074128.000,2447.1843,N,12059.6856,E,1,09,0.9,97.7,M,15.0,M,,0000*60\r\n'1
b'$GPGSA,A,3,23,57,24,18,10,12,25,15,32,,,,2.0,0.9,1.7*33\r\n'1
b'$GPGSA,A,3,23,57,24,18,10,12,25,15,32,,,,2.0,0.9,1.7*33\r\n'1
b'$GPGSA,A,3,23,57,24,18,10,12,25,15,32,,,,2.0,0.9,1.7*33\r\n'1
b'$GPRMC,074128.000,A,2447.1843,N,12059.6856,E,0.04,0.00,280921,,,A*6B\r\n'1
b'$GPRMC,074128.000,A,2447.1843,N,12059.6856,E,0.04,0.00,280921,,,A*6B\r\n'1
b'$GPGGA,074129.000,2447.1843,N,12059.6856,E,1,09,0.9,97.7,M,15.0,M,,0000*61\r\n'1
b'$GPGGA,074129.000,2447.1843,N,12059.6856,E,1,09,0.9,97.7,M,15.0,M,,0000*61\r\n'1
b'$GPGGA,074129.000,2447.1843,N,12059.6856,E,1,09,0.9,97.7,M,15.0,M,,0000*61\r\n'1
b'$GPGSA,A,3,23,57,24,18,10,12,25,15,32,,,,2.0,0.9,1.7*33\r\n'1
b'$GPGSA,A,3,23,57,24,18,10,12,25,15,32,,,,2.0,0.9,1.7*33\r\n'1
b'$GPRMC,074129.000,A,2447.1843,N,12059.6856,E,0.00,0.00,280921,,,A*6E\r\n'1
b'$GPRMC,074129.000,A,2447.1843,N,12059.6856,E,0.00,0.00,280921,,,A*6E\r\n'1
b'$GPRMC,074129.000,A,2447.1843,N,12059.6856,E,0.00,0.00,280921,,,A*6E\r\n'1
b'$GPGGA,074130.000,2447.1843,N,12059.6856,E,1,09,0.9,97.7,M,15.0,M,,0000*69\r\n'1
b'$GPGGA,074130.000,2447.1843,N,12059.6856,E,1,09,0.9,97.7,M,15.0,M,,0000*69\r\n'1
b'$GPGSA,A,3,23,57,24,18,10,12,25,15,32,,,,2.0,0.9,1.7*33\r\n'1
b'$GPGSA,A,3,23,57,24,18,10,12,25,15,32,,,,2.0,0.9,1.7*33\r\n'1
b'$GPGSA,A,3,23,57,24,18,10,12,25,15,32,,,,2.0,0.9,1.7*33\r\n'1
b'$GPRMC,074130.000,A,2447.1843,N,12059.6856,E,0.00,0.00,280921,,,A*66\r\n'1
b'$GPRMC,074130.000,A,2447.1843,N,12059.6856,E,0.00,0.00,280921,,,A*66\r\n'1
b'$GPGGA,074131.000,2447.1842,N,12059.6856,E,1,09,0.9,97.6,M,15.0,M,,0000*68\r\n'1
b'$GPGGA,074131.000,2447.1842,N,12059.6856,E,1,09,0.9,97.6,M,15.0,M,,0000*68\r\n'1
b'$GPGGA,074131.000,2447.1842,N,12059.6856,E,1,09,0.9,97.6,M,15.0,M,,0000*68\r\n'1
b'$GPGSA,A,3,23,57,24,18,10,12,25,15,32,,,,2.0,0.9,1.7*33\r\n'1
b'$GPGSA,A,3,23,57,24,18,10,12,25,15,32,,,,2.0,0.9,1.7*33\r\n'1
b'$GPGSV,3,1,10,23,72,359,35,57,64,056,35,24,52,033,40,18,42,212,38*72\r\n'1
b'$GPGSV,3,1,10,23,72,359,35,57,64,056,35,24,52,033,40,18,42,212,38*72\r\n'1
b'$GPGSV,3,1,10,23,72,359,35,57,64,056,35,24,52,033,40,18,42,212,38*72\r\n'1
b'$GPGSV,3,2,10,10,38,326,37,12,33,125,35,25,26,161,34,15,25,067,37*77\r\n'1
b'$GPGSV,3,2,10,10,38,326,37,12,33,125,35,25,26,161,34,15,25,067,37*77\r\n'1
b'$GPGSV,3,3,10,32,20,288,29,05,08,130,*7D\r\n'1
b'$GPGSV,3,3,10,32,20,288,29,05,08,130,*7D\r\n'1
b'$GPGSV,3,3,10,32,20,288,29,05,08,130,*7D\r\n'1
b'$GPRMC,074131.000,A,2447.1842,N,12059.6856,E,0.23,0.00,280921,,,A*67\r\n'1
b'$GPRMC,074131.000,A,2447.1842,N,12059.6856,E,0.23,0.00,280921,,,A*67\r\n'1
b'$GPGGA,074132.000,2447.1841,N,12059.6857,E,1,09,0.9,97.5,M,15.0,M,,0000*6A\r\n'1
b'$GPGGA,074132.000,2447.1841,N,12059.6857,E,1,09,0.9,97.5,M,15.0,M,,0000*6A\r\n'1
b'$GPGGA,074132.000,2447.1841,N,12059.6857,E,1,09,0.9,97.5,M,15.0,M,,0000*6A\r\n'1
b'$GPGSA,A,3,23,57,24,18,10,12,25,15,32,,,,2.0,0.9,1.7*33\r\n'1
b'$GPGSA,A,3,23,57,24,18,10,12,25,15,32,,,,2.0,0.9,1.7*33\r\n'1
b'$GPRMC,074132.000,A,2447.1841,N,12059.6857,E,0.82,0.00,280921,,,A*6D\r\n'1
b'$GPRMC,074132.000,A,2447.1841,N,12059.6857,E,0.82,0.00,280921,,,A*6D\r\n'1
b'$GPRMC,074132.000,A,2447.1841,N,12059.6857,E,0.82,0.00,280921,,,A*6D\r\n'1
b'$GPGGA,074133.000,2447.1836,N,12059.6859,E,1,09,0.9,97.5,M,15.0,M,,0000*65\r\n'1
b'$GPGGA,074133.000,2447.1836,N,12059.6859,E,1,09,0.9,97.5,M,15.0,M,,0000*65\r\n'1
b'$GPGSA,A,3,23,57,24,18,10,12,25,15,32,,,,2.0,0.9,1.7*33\r\n'1
b'$GPGSA,A,3,23,57,24,18,10,12,25,15,32,,,,2.0,0.9,1.7*33\r\n'1
b'$GPGSA,A,3,23,57,24,18,10,12,25,15,32,,,,2.0,0.9,1.7*33\r\n'1
b'$GPRMC,074133.000,A,2447.1836,N,12059.6859,E,2.63,149.08,280921,,,A*6B\r\n'1
b'$GPRMC,074133.000,A,2447.1836,N,12059.6859,E,2.63,149.08,280921,,,A*6B\r\n'1
b'$GPGGA,074134.000,2447.1829,N,12059.6868,E,1,09,0.9,97.5,M,15.0,M,,0000*6E\r\n'1
b'$GPGGA,074134.000,2447.1829,N,12059.6868,E,1,09,0.9,97.5,M,15.0,M,,0000*6E\r\n'1
b'$GPGGA,074134.000,2447.1829,N,12059.6868,E,1,09,0.9,97.5,M,15.0,M,,0000*6E\r\n'1
b'$GPGSA,A,3,23,57,24,18,10,12,25,15,32,,,,2.0,0.9,1.7*33\r\n'1
b'$GPGSA,A,3,23,57,24,18,10,12,25,15,32,,,,2.0,0.9,1.7*33\r\n'1
b'$GPRMC,074134.000,A,2447.1829,N,12059.6868,E,5.03,121.59,280921,,,A*6B\r\n'1
b'$GPRMC,074134.000,A,2447.1829,N,12059.6868,E,5.03,121.59,280921,,,A*6B\r\n'1
b'$GPRMC,074134.000,A,2447.1829,N,12059.6868,E,5.03,121.59,280921,,,A*6B\r\n'1
b'$GPGGA,074135.000,2447.1823,N,12059.6885,E,1,09,0.9,97.6,M,15.0,M,,0000*65\r\n'1
b'$GPGGA,074135.000,2447.1823,N,12059.6885,E,1,09,0.9,97.6,M,15.0,M,,0000*65\r\n'1
b'$GPGSA,A,3,23,57,24,18,10,12,25,15,32,,,,2.0,0.9,1.7*33\r\n'1
b'$GPGSA,A,3,23,57,24,18,10,12,25,15,32,,,,2.0,0.9,1.7*33\r\n'1
b'$GPGSA,A,3,23,57,24,18,10,12,25,15,32,,,,2.0,0.9,1.7*33\r\n'1
b'$GPRMC,074135.000,A,2447.1823,N,12059.6885,E,6.56,103.70,280921,,,A*6B\r\n'1
b'$GPRMC,074135.000,A,2447.1823,N,12059.6885,E,6.56,103.70,280921,,,A*6B\r\n'1
b'$GPGGA,074136.000,2447.1819,N,12059.6908,E,1,09,0.9,97.8,M,15.0,M,,0000*65\r\n'1
b'$GPGGA,074136.000,2447.1819,N,12059.6908,E,1,09,0.9,97.8,M,15.0,M,,0000*65\r\n'1
b'$GPGGA,074136.000,2447.1819,N,12059.6908,E,1,09,0.9,97.8,M,15.0,M,,0000*65\r\n'1
b'$GPGSA,A,3,23,57,24,18,10,12,25,15,32,,,,2.0,0.9,1.7*33\r\n'1
b'$GPGSA,A,3,23,57,24,18,10,12,25,15,32,,,,2.0,0.9,1.7*33\r\n'1
b'$GPGSV,3,1,10,23,72,359,33,57,64,056,36,24,52,033,39,18,42,212,38*79\r\n'1
b'$GPGSV,3,1,10,23,72,359,33,57,64,056,36,24,52,033,39,18,42,212,38*79\r\n'1
b'$GPGSV,3,1,10,23,72,359,33,57,64,056,36,24,52,033,39,18,42,212,38*79\r\n'1
b'$GPGSV,3,2,10,10,38,326,37,12,33,125,41,25,26,161,35,15,25,067,34*76\r\n'1
b'$GPGSV,3,2,10,10,38,326,37,12,33,125,41,25,26,161,35,15,25,067,34*76\r\n'1
b'$GPGSV,3,3,10,32,20,288,24,05,08,130,*70\r\n'1
b'$GPGSV,3,3,10,32,20,288,24,05,08,130,*70\r\n'1
b'$GPGSV,3,3,10,32,20,288,24,05,08,130,*70\r\n'1
b'$GPRMC,074136.000,A,2447.1819,N,12059.6908,E,7.94,94.88,280921,,,A*52\r\n'1
b'$GPRMC,074136.000,A,2447.1819,N,12059.6908,E,7.94,94.88,280921,,,A*52\r\n'1
b'$GPGGA,074137.000,2447.1818,N,12059.6935,E,1,09,0.9,98.2,M,15.0,M,,0000*6E\r\n'1
b'$GPGGA,074137.000,2447.1818,N,12059.6935,E,1,09,0.9,98.2,M,15.0,M,,0000*6E\r\n'1
b'$GPGGA,074137.000,2447.1818,N,12059.6935,E,1,09,0.9,98.2,M,15.0,M,,0000*6E\r\n'1
b'$GPGSA,A,3,23,57,24,18,10,12,25,15,32,,,,2.0,0.9,1.7*33\r\n'1
b'$GPGSA,A,3,23,57,24,18,10,12,25,15,32,,,,2.0,0.9,1.7*33\r\n'1
b'$GPRMC,074137.000,A,2447.1818,N,12059.6935,E,9.19,91.59,280921,,,A*5E\r\n'1
b'$GPRMC,074137.000,A,2447.1818,N,12059.6935,E,9.19,91.59,280921,,,A*5E\r\n'1
b'$GPRMC,074137.000,A,2447.1818,N,12059.6935,E,9.19,91.59,280921,,,A*5E\r\n'1
b'$GPGGA,074138.000,2447.1816,N,12059.6965,E,1,09,0.9,98.5,M,15.0,M,,0000*6D\r\n'1
b'$GPGGA,074138.000,2447.1816,N,12059.6965,E,1,09,0.9,98.5,M,15.0,M,,0000*6D\r\n'1
b'$GPGSA,A,3,23,57,24,18,10,12,25,15,32,,,,2.0,0.9,1.7*33\r\n'1
b'$GPGSA,A,3,23,57,24,18,10,12,25,15,32,,,,2.0,0.9,1.7*33\r\n'1
b'$GPGSA,A,3,23,57,24,18,10,12,25,15,32,,,,2.0,0.9,1.7*33\r\n'1
b'$GPRMC,074138.000,A,2447.1816,N,12059.6965,E,10.05,92.69,280921,,,A*6F\r\n'1
b'$GPRMC,074138.000,A,2447.1816,N,12059.6965,E,10.05,92.69,280921,,,A*6F\r\n'1
b'$GPGGA,074139.000,2447.1816,N,12059.6997,E,1,09,0.9,98.8,M,15.0,M,,0000*6C\r\n'1
b'$GPGGA,074139.000,2447.1816,N,12059.6997,E,1,09,0.9,98.8,M,15.0,M,,0000*6C\r\n'1
b'$GPGGA,074139.000,2447.1816,N,12059.6997,E,1,09,0.9,98.8,M,15.0,M,,0000*6C\r\n'1
b'$GPGSA,A,3,23,57,24,18,10,12,25,15,32,,,,2.0,0.9,1.7*33\r\n'1
b'$GPGSA,A,3,23,57,24,18,10,12,25,15,32,,,,2.0,0.9,1.7*33\r\n'1
b'$GPRMC,074139.000,A,2447.1816,N,12059.6997,E,10.67,88.33,280921,,,A*63\r\n'1
b'$GPRMC,074139.000,A,2447.1816,N,12059.6997,E,10.67,88.33,280921,,,A*63\r\n'1
b'$GPRMC,074139.000,A,2447.1816,N,12059.6997,E,10.67,88.33,280921,,,A*63\r\n'1
b'$GPGGA,074140.000,2447.1816,N,12059.7029,E,1,09,0.9,99.0,M,15.0,M,,0000*66\r\n'1
b'$GPGGA,074140.000,2447.1816,N,12059.7029,E,1,09,0.9,99.0,M,15.0,M,,0000*66\r\n'1
b'$GPGSA,A,3,23,57,24,18,10,12,25,15,32,,,,2.0,0.9,1.7*33\r\n'1
b'$GPGSA,A,3,23,57,24,18,10,12,25,15,32,,,,2.0,0.9,1.7*33\r\n'1
b'$GPGSA,A,3,23,57,24,18,10,12,25,15,32,,,,2.0,0.9,1.7*33\r\n'1
b'$GPRMC,074140.000,A,2447.1816,N,12059.7029,E,10.31,88.24,280921,,,A*65\r\n'1
b'$GPRMC,074140.000,A,2447.1816,N,12059.7029,E,10.31,88.24,280921,,,A*65\r\n'1
b'$GPGGA,074141.000,2447.1816,N,12059.7060,E,1,09,0.9,99.2,M,15.0,M,,0000*68\r\n'1
b'$GPGGA,074141.000,2447.1816,N,12059.7060,E,1,09,0.9,99.2,M,15.0,M,,0000*68\r\n'1
b'$GPGGA,074141.000,2447.1816,N,12059.7060,E,1,09,0.9,99.2,M,15.0,M,,0000*68\r\n'1
b'$GPGSA,A,3,23,57,24,18,10,12,25,15,32,,,,2.0,0.9,1.7*33\r\n'1
b'$GPGSA,A,3,23,57,24,18,10,12,25,15,32,,,,2.0,0.9,1.7*33\r\n'1
b'$GPGSV,3,1,10,23,72,359,38,57,64,056,36,24,52,033,40,18,42,212,37*73\r\n'1
b'$GPGSV,3,1,10,23,72,359,38,57,64,056,36,24,52,033,40,18,42,212,37*73\r\n'1
b'$GPGSV,3,1,10,23,72,359,38,57,64,056,36,24,52,033,40,18,42,212,37*73\r\n'1
b'$GPGSV,3,2,10,10,38,326,37,12,33,125,39,25,26,161,30,15,25,067,35*7D\r\n'1
b'$GPGSV,3,2,10,10,38,326,37,12,33,125,39,25,26,161,30,15,25,067,35*7D\r\n'1
b'$GPGSV,3,3,10,32,20,288,30,05,08,130,*75\r\n'1
b'$GPGSV,3,3,10,32,20,288,30,05,08,130,*75\r\n'1
b'$GPGSV,3,3,10,32,20,288,30,05,08,130,*75\r\n'1
b'$GPRMC,074141.000,A,2447.1816,N,12059.7060,E,9.49,87.96,280921,,,A*58\r\n'1
b'$GPRMC,074141.000,A,2447.1816,N,12059.7060,E,9.49,87.96,280921,,,A*58\r\n'1
b'$GPGGA,074142.000,2447.1818,N,12059.7088,E,1,09,0.9,99.4,M,15.0,M,,0000*65\r\n'1
b'$GPGGA,074142.000,2447.1818,N,12059.7088,E,1,09,0.9,99.4,M,15.0,M,,0000*65\r\n'1
b'$GPGGA,074142.000,2447.1818,N,12059.7088,E,1,09,0.9,99.4,M,15.0,M,,0000*65\r\n'1
b'$GPGSA,A,3,23,57,24,18,10,12,25,15,32,,,,2.0,0.9,1.7*33\r\n'1
b'$GPGSA,A,3,23,57,24,18,10,12,25,15,32,,,,2.0,0.9,1.7*33\r\n'1
b'$GPRMC,074142.000,A,2447.1818,N,12059.7088,E,8.30,81.83,280921,,,A*5E\r\n'1
b'$GPRMC,074142.000,A,2447.1818,N,12059.7088,E,8.30,81.83,280921,,,A*5E\r\n'1
b'$GPRMC,074142.000,A,2447.1818,N,12059.7088,E,8.30,81.83,280921,,,A*5E\r\n'1
b'$GPGGA,074143.000,2447.1823,N,12059.7111,E,1,09,0.9,99.5,M,15.0,M,,0000*6C\r\n'1
b'$GPGGA,074143.000,2447.1823,N,12059.7111,E,1,09,0.9,99.5,M,15.0,M,,0000*6C\r\n'1
b'$GPGSA,A,3,23,57,24,18,10,12,25,15,32,,,,2.0,0.9,1.7*33\r\n'1
b'$GPGSA,A,3,23,57,24,18,10,12,25,15,32,,,,2.0,0.9,1.7*33\r\n'1
b'$GPGSA,A,3,23,57,24,18,10,12,25,15,32,,,,2.0,0.9,1.7*33\r\n'1
b'$GPRMC,074143.000,A,2447.1823,N,12059.7111,E,7.24,66.37,280921,,,A*5A\r\n'1
b'$GPRMC,074143.000,A,2447.1823,N,12059.7111,E,7.24,66.37,280921,,,A*5A\r\n'1
b'$GPGGA,074144.000,2447.1834,N,12059.7128,E,1,09,0.9,99.6,M,15.0,M,,0000*64\r\n'1
b'$GPGGA,074144.000,2447.1834,N,12059.7128,E,1,09,0.9,99.6,M,15.0,M,,0000*64\r\n'1
b'$GPGGA,074144.000,2447.1834,N,12059.7128,E,1,09,0.9,99.6,M,15.0,M,,0000*64\r\n'1
b'$GPGSA,A,3,23,57,24,18,10,12,25,15,32,,,,2.0,0.9,1.7*33\r\n'1
b'$GPGSA,A,3,23,57,24,18,10,12,25,15,32,,,,2.0,0.9,1.7*33\r\n'1
b'$GPRMC,074144.000,A,2447.1834,N,12059.7128,E,6.83,47.19,280921,,,A*52\r\n'1
b'$GPRMC,074144.000,A,2447.1834,N,12059.7128,E,6.83,47.19,280921,,,A*52\r\n'1
b'$GPRMC,074144.000,A,2447.1834,N,12059.7128,E,6.83,47.19,280921,,,A*52\r\n'1
b'$GPGGA,074145.000,2447.1850,N,12059.7139,E,1,09,0.9,99.6,M,15.0,M,,0000*67\r\n'1
b'$GPGGA,074145.000,2447.1850,N,12059.7139,E,1,09,0.9,99.6,M,15.0,M,,0000*67\r\n'1
b'$GPGSA,A,3,23,57,24,18,10,12,25,15,32,,,,2.0,0.9,1.7*33\r\n'1
b'$GPGSA,A,3,23,57,24,18,10,12,25,15,32,,,,2.0,0.9,1.7*33\r\n'1
b'$GPGSA,A,3,23,57,24,18,10,12,25,15,32,,,,2.0,0.9,1.7*33\r\n'1
b'$GPRMC,074145.000,A,2447.1850,N,12059.7139,E,7.03,19.18,280921,,,A*52\r\n'1
b'$GPRMC,074145.000,A,2447.1850,N,12059.7139,E,7.03,19.18,280921,,,A*52\r\n'1
b'$GPGGA,074146.000,2447.1868,N,12059.7145,E,1,08,1.0,99.6,M,15.0,M,,0000*6D\r\n'1
b'$GPGGA,074146.000,2447.1868,N,12059.7145,E,1,08,1.0,99.6,M,15.0,M,,0000*6D\r\n'1
b'$GPGGA,074146.000,2447.1868,N,12059.7145,E,1,08,1.0,99.6,M,15.0,M,,0000*6D\r\n'1
b'$GPGSA,A,3,23,57,24,18,10,12,15,32,,,,,2.1,1.0,1.8*32\r\n'1
b'$GPGSA,A,3,23,57,24,18,10,12,15,32,,,,,2.1,1.0,1.8*32\r\n'1
b'$GPGSV,3,1,10,23,72,359,36,57,64,056,36,24,52,033,40,18,42,212,30*7A\r\n'1
b'$GPGSV,3,1,10,23,72,359,36,57,64,056,36,24,52,033,40,18,42,212,30*7A\r\n'1
b'$GPGSV,3,1,10,23,72,359,36,57,64,056,36,24,52,033,40,18,42,212,30*7A\r\n'1
b'$GPGSV,3,2,10,10,38,326,37,12,33,125,26,15,25,067,36,32,20,288,30*74\r\n'1
b'$GPGSV,3,2,10,10,38,326,37,12,33,125,26,15,25,067,36,32,20,288,30*74\r\n'1
b'$GPGSV,3,3,10,25,26,161,,05,08,130,*72\r\n'1
b'$GPGSV,3,3,10,25,26,161,,05,08,130,*72\r\n'1
b'$GPGSV,3,3,10,25,26,161,,05,08,130,*72\r\n'1
b'$GPRMC,074146.000,A,2447.1868,N,12059.7145,E,7.02,14.33,280921,,,A*54\r\n'1
b'$GPRMC,074146.000,A,2447.1868,N,12059.7145,E,7.02,14.33,280921,,,A*54\r\n'1
b'$GPGGA,074147.000,2447.1886,N,12059.7149,E,1,08,1.0,99.6,M,15.0,M,,0000*60\r\n'1
b'$GPGGA,074147.000,2447.1886,N,12059.7149,E,1,08,1.0,99.6,M,15.0,M,,0000*60\r\n'1
b'$GPGGA,074147.000,2447.1886,N,12059.7149,E,1,08,1.0,99.6,M,15.0,M,,0000*60\r\n'1
b'$GPGSA,A,3,23,57,24,18,10,12,15,32,,,,,2.1,1.0,1.8*32\r\n'1
b'$GPGSA,A,3,23,57,24,18,10,12,15,32,,,,,2.1,1.0,1.8*32\r\n'1
b'$GPRMC,074147.000,A,2447.1886,N,12059.7149,E,6.50,11.21,280921,,,A*59\r\n'1
b'$GPRMC,074147.000,A,2447.1886,N,12059.7149,E,6.50,11.21,280921,,,A*59\r\n'1
b'$GPRMC,074147.000,A,2447.1886,N,12059.7149,E,6.50,11.21,280921,,,A*59\r\n'1
b'$GPGGA,074148.000,2447.1903,N,12059.7153,E,1,09,0.9,99.7,M,15.0,M,,0000*60\r\n'1
b'$GPGGA,074148.000,2447.1903,N,12059.7153,E,1,09,0.9,99.7,M,15.0,M,,0000*60\r\n'1
b'$GPGSA,A,3,23,57,24,18,10,12,25,15,32,,,,2.0,0.9,1.7*33\r\n'1
b'$GPGSA,A,3,23,57,24,18,10,12,25,15,32,,,,2.0,0.9,1.7*33\r\n'1
b'$GPGSA,A,3,23,57,24,18,10,12,25,15,32,,,,2.0,0.9,1.7*33\r\n'1
b'$GPRMC,074148.000,A,2447.1903,N,12059.7153,E,5.85,10.68,280921,,,A*56\r\n'1
b'$GPRMC,074148.000,A,2447.1903,N,12059.7153,E,5.85,10.68,280921,,,A*56\r\n'1
b'$GPGGA,074149.000,2447.1918,N,12059.7156,E,1,09,0.9,99.8,M,15.0,M,,0000*61\r\n'1
b'$GPGGA,074149.000,2447.1918,N,12059.7156,E,1,09,0.9,99.8,M,15.0,M,,0000*61\r\n'1
b'$GPGGA,074149.000,2447.1918,N,12059.7156,E,1,09,0.9,99.8,M,15.0,M,,0000*61\r\n'1
b'$GPGSA,A,3,23,57,24,18,10,12,25,15,32,,,,2.0,0.9,1.7*33\r\n'1
b'$GPGSA,A,3,23,57,24,18,10,12,25,15,32,,,,2.0,0.9,1.7*33\r\n'1
b'$GPRMC,074149.000,A,2447.1918,N,12059.7156,E,5.19,12.47,280921,,,A*52\r\n'1
b'$GPRMC,074149.000,A,2447.1918,N,12059.7156,E,5.19,12.47,280921,,,A*52\r\n'1
b'$GPRMC,074149.000,A,2447.1918,N,12059.7156,E,5.19,12.47,280921,,,A*52\r\n'1
b'$GPGGA,074150.000,2447.1931,N,12059.7161,E,1,09,0.9,99.8,M,15.0,M,,0000*66\r\n'1
b'$GPGGA,074150.000,2447.1931,N,12059.7161,E,1,09,0.9,99.8,M,15.0,M,,0000*66\r\n'1
b'$GPGSA,A,3,23,57,24,18,10,12,25,15,32,,,,2.0,0.9,1.7*33\r\n'1
b'$GPGSA,A,3,23,57,24,18,10,12,25,15,32,,,,2.0,0.9,1.7*33\r\n'1
b'$GPGSA,A,3,23,57,24,18,10,12,25,15,32,,,,2.0,0.9,1.7*33\r\n'1
b'$GPRMC,074150.000,A,2447.1931,N,12059.7161,E,4.92,19.95,280921,,,A*53\r\n'1
b'$GPRMC,074150.000,A,2447.1931,N,12059.7161,E,4.92,19.95,280921,,,A*53\r\n'1
b'$GPGGA,074151.000,2447.1943,N,12059.7168,E,1,09,0.9,99.9,M,15.0,M,,0000*6A\r\n'1
b'$GPGGA,074151.000,2447.1943,N,12059.7168,E,1,09,0.9,99.9,M,15.0,M,,0000*6A\r\n'1
b'$GPGGA,074151.000,2447.1943,N,12059.7168,E,1,09,0.9,99.9,M,15.0,M,,0000*6A\r\n'1
b'$GPGSA,A,3,23,57,24,18,10,12,25,15,32,,,,2.0,0.9,1.7*33\r\n'1
b'$GPGSA,A,3,23,57,24,18,10,12,25,15,32,,,,2.0,0.9,1.7*33\r\n'1
b'$GPGSV,3,1,10,23,72,359,32,57,64,056,35,24,52,033,39,18,42,212,33*70\r\n'1
b'$GPGSV,3,1,10,23,72,359,32,57,64,056,35,24,52,033,39,18,42,212,33*70\r\n'1
b'$GPGSV,3,1,10,23,72,359,32,57,64,056,35,24,52,033,39,18,42,212,33*70\r\n'1
b'$GPGSV,3,2,10,10,38,326,37,12,33,125,22,25,26,161,23,15,25,067,19*7B\r\n'1
b'$GPGSV,3,2,10,10,38,326,37,12,33,125,22,25,26,161,23,15,25,067,19*7B\r\n'1
b'$GPGSV,3,3,10,32,20,288,31,05,08,130,*74\r\n'1
b'$GPGSV,3,3,10,32,20,288,31,05,08,130,*74\r\n'1
b'$GPGSV,3,3,10,32,20,288,31,05,08,130,*74\r\n'1
b'$GPRMC,074151.000,A,2447.1943,N,12059.7168,E,4.92,27.84,280921,,,A*53\r\n'1
b'$GPRMC,074151.000,A,2447.1943,N,12059.7168,E,4.92,27.84,280921,,,A*53\r\n'1
b'$GPGGA,074152.000,2447.1956,N,12059.7176,E,1,09,0.9,99.9,M,15.0,M,,0000*62\r\n'1
b'$GPGGA,074152.000,2447.1956,N,12059.7176,E,1,09,0.9,99.9,M,15.0,M,,0000*62\r\n'1
b'$GPGGA,074152.000,2447.1956,N,12059.7176,E,1,09,0.9,99.9,M,15.0,M,,0000*62\r\n'1
b'$GPGSA,A,3,23,57,24,18,10,12,25,15,32,,,,2.0,0.9,1.7*33\r\n'1
b'$GPGSA,A,3,23,57,24,18,10,12,25,15,32,,,,2.0,0.9,1.7*33\r\n'1
b'$GPRMC,074152.000,A,2447.1956,N,12059.7176,E,5.70,28.09,280921,,,A*5C\r\n'1
b'$GPRMC,074152.000,A,2447.1956,N,12059.7176,E,5.70,28.09,280921,,,A*5C\r\n'1
b'$GPRMC,074152.000,A,2447.1956,N,12059.7176,E,5.70,28.09,280921,,,A*5C\r\n'1
b'$GPGGA,074153.000,2447.1972,N,12059.7183,E,1,09,0.9,99.9,M,15.0,M,,0000*6F\r\n'1
b'$GPGGA,074153.000,2447.1972,N,12059.7183,E,1,09,0.9,99.9,M,15.0,M,,0000*6F\r\n'1
b'$GPGSA,A,3,23,57,24,18,10,12,25,15,32,,,,2.0,0.9,1.7*33\r\n'1
b'$GPGSA,A,3,23,57,24,18,10,12,25,15,32,,,,2.0,0.9,1.7*33\r\n'1
b'$GPGSA,A,3,23,57,24,18,10,12,25,15,32,,,,2.0,0.9,1.7*33\r\n'1
b'$GPRMC,074153.000,A,2447.1972,N,12059.7183,E,6.27,24.08,280921,,,A*5D\r\n'1
b'$GPRMC,074153.000,A,2447.1972,N,12059.7183,E,6.27,24.08,280921,,,A*5D\r\n'1
b'$GPGGA,074154.000,2447.1992,N,12059.7191,E,1,09,0.9,99.9,M,15.0,M,,0000*65\r\n'1
b'$GPGGA,074154.000,2447.1992,N,12059.7191,E,1,09,0.9,99.9,M,15.0,M,,0000*65\r\n'1
b'$GPGGA,074154.000,2447.1992,N,12059.7191,E,1,09,0.9,99.9,M,15.0,M,,0000*65\r\n'1
b'$GPGSA,A,3,23,57,24,18,10,12,25,15,32,,,,2.0,0.9,1.7*33\r\n'1
b'$GPGSA,A,3,23,57,24,18,10,12,25,15,32,,,,2.0,0.9,1.7*33\r\n'1
b'$GPRMC,074154.000,A,2447.1992,N,12059.7191,E,7.75,19.16,280921,,,A*50\r\n'1
b'$GPRMC,074154.000,A,2447.1992,N,12059.7191,E,7.75,19.16,280921,,,A*50\r\n'1
b'$GPRMC,074154.000,A,2447.1992,N,12059.7191,E,7.75,19.16,280921,,,A*50\r\n'1
b'$GPGGA,074155.000,2447.2018,N,12059.7201,E,1,09,0.9,99.9,M,15.0,M,,0000*66\r\n'1
b'$GPGGA,074155.000,2447.2018,N,12059.7201,E,1,09,0.9,99.9,M,15.0,M,,0000*66\r\n'1
b'$GPGSA,A,3,23,57,24,18,10,12,25,15,32,,,,2.0,0.9,1.7*33\r\n'1
b'$GPGSA,A,3,23,57,24,18,10,12,25,15,32,,,,2.0,0.9,1.7*33\r\n'1
b'$GPGSA,A,3,23,57,24,18,10,12,25,15,32,,,,2.0,0.9,1.7*33\r\n'1
b'$GPRMC,074155.000,A,2447.2018,N,12059.7201,E,9.28,17.26,280921,,,A*58\r\n'1
b'$GPRMC,074155.000,A,2447.2018,N,12059.7201,E,9.28,17.26,280921,,,A*58\r\n'1
b'$GPGGA,074156.000,2447.2051,N,12059.7211,E,1,09,0.9,99.9,M,15.0,M,,0000*69\r\n'1
b'$GPGGA,074156.000,2447.2051,N,12059.7211,E,1,09,0.9,99.9,M,15.0,M,,0000*69\r\n'1
b'$GPGGA,074156.000,2447.2051,N,12059.7211,E,1,09,0.9,99.9,M,15.0,M,,0000*69\r\n'1
b'$GPGSA,A,3,23,57,24,18,10,12,25,15,32,,,,2.0,0.9,1.7*33\r\n'1
b'$GPGSA,A,3,23,57,24,18,10,12,25,15,32,,,,2.0,0.9,1.7*33\r\n'1
b'$GPGSV,3,1,10,23,72,359,33,57,64,056,29,24,52,033,37,18,42,212,34*75\r\n'1
b'$GPGSV,3,1,10,23,72,359,33,57,64,056,29,24,52,033,37,18,42,212,34*75\r\n'1
b'$GPGSV,3,1,10,23,72,359,33,57,64,056,29,24,52,033,37,18,42,212,34*75\r\n'1
b'$GPGSV,3,2,10,10,38,326,30,12,33,125,24,25,26,161,21,15,25,067,25*77\r\n'1
b'$GPGSV,3,2,10,10,38,326,30,12,33,125,24,25,26,161,21,15,25,067,25*77\r\n'1
b'$GPGSV,3,3,10,32,20,288,24,05,08,130,*70\r\n'1
b'$GPGSV,3,3,10,32,20,288,24,05,08,130,*70\r\n'1
b'$GPGSV,3,3,10,32,20,288,24,05,08,130,*70\r\n'1
b'$GPRMC,074156.000,A,2447.2051,N,12059.7211,E,11.22,16.55,280921,,,A*61\r\n'1
b'$GPRMC,074156.000,A,2447.2051,N,12059.7211,E,11.22,16.55,280921,,,A*61\r\n'1
b'$GPGGA,074157.000,2447.2090,N,12059.7220,E,1,09,0.9,100.0,M,15.0,M,,0000*5F\r\n'1
b'$GPGGA,074157.000,2447.2090,N,12059.7220,E,1,09,0.9,100.0,M,15.0,M,,0000*5F\r\n'1
b'$GPGGA,074157.000,2447.2090,N,12059.7220,E,1,09,0.9,100.0,M,15.0,M,,0000*5F\r\n'1
b'$GPGSA,A,3,23,57,24,18,10,12,25,15,32,,,,2.0,0.9,1.7*33\r\n'1
b'$GPGSA,A,3,23,57,24,18,10,12,25,15,32,,,,2.0,0.9,1.7*33\r\n'1
b'$GPRMC,074157.000,A,2447.2090,N,12059.7220,E,13.44,13.16,280921,,,A*6F\r\n'1
b'$GPRMC,074157.000,A,2447.2090,N,12059.7220,E,13.44,13.16,280921,,,A*6F\r\n'1
b'$GPRMC,074157.000,A,2447.2090,N,12059.7220,E,13.44,13.16,280921,,,A*6F\r\n'1
b'$GPGGA,074158.000,2447.2137,N,12059.7225,E,1,09,0.9,99.9,M,15.0,M,,0000*61\r\n'1
b'$GPGGA,074158.000,2447.2137,N,12059.7225,E,1,09,0.9,99.9,M,15.0,M,,0000*61\r\n'1
b'$GPGSA,A,3,23,57,24,18,10,12,25,15,32,,,,2.0,0.9,1.7*33\r\n'1
b'$GPGSA,A,3,23,57,24,18,10,12,25,15,32,,,,2.0,0.9,1.7*33\r\n'1
b'$GPGSA,A,3,23,57,24,18,10,12,25,15,32,,,,2.0,0.9,1.7*33\r\n'1
b'$GPRMC,074158.000,A,2447.2137,N,12059.7225,E,15.61,9.21,280921,,,A*57\r\n'1
b'$GPRMC,074158.000,A,2447.2137,N,12059.7225,E,15.61,9.21,280921,,,A*57\r\n'1
b'$GPGGA,074159.000,2447.2191,N,12059.7226,E,1,09,0.9,100.0,M,15.0,M,,0000*57\r\n'1
b'$GPGGA,074159.000,2447.2191,N,12059.7226,E,1,09,0.9,100.0,M,15.0,M,,0000*57\r\n'1
b'$GPGGA,074159.000,2447.2191,N,12059.7226,E,1,09,0.9,100.0,M,15.0,M,,0000*57\r\n'1
b'$GPGSA,A,3,23,57,24,18,10,12,25,15,32,,,,2.0,0.9,1.7*33\r\n'1
b'$GPGSA,A,3,23,57,24,18,10,12,25,15,32,,,,2.0,0.9,1.7*33\r\n'1
b'$GPRMC,074159.000,A,2447.2191,N,12059.7226,E,17.54,5.76,280921,,,A*53\r\n'1
b'$GPRMC,074159.000,A,2447.2191,N,12059.7226,E,17.54,5.76,280921,,,A*53\r\n'1
b'$GPRMC,074159.000,A,2447.2191,N,12059.7226,E,17.54,5.76,280921,,,A*53\r\n'1
b'$GPGGA,074200.000,2447.2250,N,12059.7225,E,1,09,0.9,100.1,M,15.0,M,,0000*54\r\n'1
b'$GPGGA,074200.000,2447.2250,N,12059.7225,E,1,09,0.9,100.1,M,15.0,M,,0000*54\r\n'1
b'$GPGSA,A,3,23,57,24,18,10,12,25,15,32,,,,2.0,0.9,1.7*33\r\n'1
b'$GPGSA,A,3,23,57,24,18,10,12,25,15,32,,,,2.0,0.9,1.7*33\r\n'1
b'$GPGSA,A,3,23,57,24,18,10,12,25,15,32,,,,2.0,0.9,1.7*33\r\n'1
b'$GPRMC,074200.000,A,2447.2250,N,12059.7225,E,19.76,0.91,280921,,,A*53\r\n'1
b'$GPRMC,074200.000,A,2447.2250,N,12059.7225,E,19.76,0.91,280921,,,A*53\r\n'1
b'$GPGGA,074201.000,2447.2311,N,12059.7223,E,1,09,0.9,100.1,M,15.0,M,,0000*57\r\n'1
b'$GPGGA,074201.000,2447.2311,N,12059.7223,E,1,09,0.9,100.1,M,15.0,M,,0000*57\r\n'1
b'$GPGGA,074201.000,2447.2311,N,12059.7223,E,1,09,0.9,100.1,M,15.0,M,,0000*57\r\n'1
b'$GPGSA,A,3,23,57,24,18,10,12,25,15,32,,,,2.0,0.9,1.7*33\r\n'1
b'$GPGSA,A,3,23,57,24,18,10,12,25,15,32,,,,2.0,0.9,1.7*33\r\n'1
b'$GPGSV,3,1,10,23,72,359,34,57,64,056,30,24,52,033,29,18,42,212,34*75\r\n'1
b'$GPGSV,3,1,10,23,72,359,34,57,64,056,30,24,52,033,29,18,42,212,34*75\r\n'1
b'$GPGSV,3,1,10,23,72,359,34,57,64,056,30,24,52,033,29,18,42,212,34*75\r\n'1
b'$GPGSV,3,2,10,10,38,326,31,12,33,125,28,25,26,161,22,15,25,067,19*76\r\n'1
b'$GPGSV,3,2,10,10,38,326,31,12,33,125,28,25,26,161,22,15,25,067,19*76\r\n'1
b'$GPGSV,3,3,10,32,20,288,29,05,08,130,*7D\r\n'1
b'$GPGSV,3,3,10,32,20,288,29,05,08,130,*7D\r\n'1
b'$GPGSV,3,3,10,32,20,288,29,05,08,130,*7D\r\n'1
b'$GPRMC,074201.000,A,2447.2311,N,12059.7223,E,19.49,359.76,280921,,,A*5A\r\n'1
b'$GPRMC,074201.000,A,2447.2311,N,12059.7223,E,19.49,359.76,280921,,,A*5A\r\n'1
b'$GPGGA,074202.000,2447.2366,N,12059.7221,E,1,09,0.9,100.4,M,15.0,M,,0000*53\r\n'1
b'$GPGGA,074202.000,2447.2366,N,12059.7221,E,1,09,0.9,100.4,M,15.0,M,,0000*53\r\n'1
b'$GPGGA,074202.000,2447.2366,N,12059.7221,E,1,09,0.9,100.4,M,15.0,M,,0000*53\r\n'1
b'$GPGSA,A,3,23,57,24,18,10,12,25,15,32,,,,2.0,0.9,1.7*33\r\n'1
b'$GPGSA,A,3,23,57,24,18,10,12,25,15,32,,,,2.0,0.9,1.7*33\r\n'1
b'$GPRMC,074202.000,A,2447.2366,N,12059.7221,E,17.69,1.24,280921,,,A*5E\r\n'1
b'$GPRMC,074202.000,A,2447.2366,N,12059.7221,E,17.69,1.24,280921,,,A*5E\r\n'1
b'$GPRMC,074202.000,A,2447.2366,N,12059.7221,E,17.69,1.24,280921,,,A*5E\r\n'1
b'$GPGGA,074203.000,2447.2414,N,12059.7223,E,1,08,1.2,100.5,M,15.0,M,,0000*58\r\n'1
b'$GPGGA,074203.000,2447.2414,N,12059.7223,E,1,08,1.2,100.5,M,15.0,M,,0000*58\r\n'1
b'$GPGSA,A,3,23,57,24,18,10,12,25,32,,,,,2.5,1.2,2.2*3E\r\n'1
b'$GPGSA,A,3,23,57,24,18,10,12,25,32,,,,,2.5,1.2,2.2*3E\r\n'1
b'$GPGSA,A,3,23,57,24,18,10,12,25,32,,,,,2.5,1.2,2.2*3E\r\n'1
b'$GPRMC,074203.000,A,2447.2414,N,12059.7223,E,15.82,2.32,280921,,,A*5C\r\n'1
b'$GPRMC,074203.000,A,2447.2414,N,12059.7223,E,15.82,2.32,280921,,,A*5C\r\n'1
b'$GPGGA,074204.000,2447.2456,N,12059.7223,E,1,08,1.2,100.6,M,15.0,M,,0000*5A\r\n'1
b'$GPGGA,074204.000,2447.2456,N,12059.7223,E,1,08,1.2,100.6,M,15.0,M,,0000*5A\r\n'1
b'$GPGGA,074204.000,2447.2456,N,12059.7223,E,1,08,1.2,100.6,M,15.0,M,,0000*5A\r\n'1
b'$GPGSA,A,3,23,57,24,18,10,12,25,32,,,,,2.5,1.2,2.2*3E\r\n'1
b'$GPGSA,A,3,23,57,24,18,10,12,25,32,,,,,2.5,1.2,2.2*3E\r\n'1
b'$GPRMC,074204.000,A,2447.2456,N,12059.7223,E,12.89,3.59,280921,,,A*5D\r\n'1
b'$GPRMC,074204.000,A,2447.2456,N,12059.7223,E,12.89,3.59,280921,,,A*5D\r\n'1
b'$GPRMC,074204.000,A,2447.2456,N,12059.7223,E,12.89,3.59,280921,,,A*5D\r\n'1
b'$GPGGA,074205.000,2447.2494,N,12059.7218,E,1,08,1.2,101.3,M,15.0,M,,0000*59\r\n'1
b'$GPGGA,074205.000,2447.2494,N,12059.7218,E,1,08,1.2,101.3,M,15.0,M,,0000*59\r\n'1
b'$GPGSA,A,3,23,57,24,18,10,12,25,32,,,,,2.5,1.2,2.2*3E\r\n'1
b'$GPGSA,A,3,23,57,24,18,10,12,25,32,,,,,2.5,1.2,2.2*3E\r\n'1
b'$GPGSA,A,3,23,57,24,18,10,12,25,32,,,,,2.5,1.2,2.2*3E\r\n'1
b'$GPRMC,074205.000,A,2447.2494,N,12059.7218,E,11.07,0.52,280921,,,A*57\r\n'1
b'$GPRMC,074205.000,A,2447.2494,N,12059.7218,E,11.07,0.52,280921,,,A*57\r\n'1
b'$GPGGA,074206.000,2447.2523,N,12059.7213,E,1,09,0.9,101.7,M,15.0,M,,0000*53\r\n'1
b'$GPGGA,074206.000,2447.2523,N,12059.7213,E,1,09,0.9,101.7,M,15.0,M,,0000*53\r\n'1
b'$GPGGA,074206.000,2447.2523,N,12059.7213,E,1,09,0.9,101.7,M,15.0,M,,0000*53\r\n'1
b'$GPGSA,A,3,23,57,24,18,10,12,25,15,32,,,,2.0,0.9,1.7*33\r\n'1
b'$GPGSA,A,3,23,57,24,18,10,12,25,15,32,,,,2.0,0.9,1.7*33\r\n'1
b'$GPGSV,3,1,10,23,72,359,33,57,64,056,26,24,52,033,32,18,42,212,34*7F\r\n'1
b'$GPGSV,3,1,10,23,72,359,33,57,64,056,26,24,52,033,32,18,42,212,34*7F\r\n'1
b'$GPGSV,3,1,10,23,72,359,33,57,64,056,26,24,52,033,32,18,42,212,34*7F\r\n'1
b'$GPGSV,3,2,10,10,38,326,32,12,33,125,15,25,26,161,21,15,25,067,32*71\r\n'1
b'$GPGSV,3,2,10,10,38,326,32,12,33,125,15,25,26,161,21,15,25,067,32*71\r\n'1
b'$GPGSV,3,3,10,32,20,288,28,05,08,130,*7C\r\n'1
b'$GPGSV,3,3,10,32,20,288,28,05,08,130,*7C\r\n'1
b'$GPGSV,3,3,10,32,20,288,28,05,08,130,*7C\r\n'1
b'$GPRMC,074206.000,A,2447.2523,N,12059.7213,E,9.38,356.12,280921,,,A*63\r\n'1
b'$GPRMC,074206.000,A,2447.2523,N,12059.7213,E,9.38,356.12,280921,,,A*63\r\n'1
b'$GPGGA,074207.000,2447.2546,N,12059.7217,E,1,09,0.9,101.7,M,15.0,M,,0000*55\r\n'1
b'$GPGGA,074207.000,2447.2546,N,12059.7217,E,1,09,0.9,101.7,M,15.0,M,,0000*55\r\n'1
b'$GPGGA,074207.000,2447.2546,N,12059.7217,E,1,09,0.9,101.7,M,15.0,M,,0000*55\r\n'1
b'$GPGSA,A,3,23,57,24,18,10,12,25,15,32,,,,2.0,0.9,1.7*33\r\n'1
b'$GPGSA,A,3,23,57,24,18,10,12,25,15,32,,,,2.0,0.9,1.7*33\r\n'1
b'$GPRMC,074207.000,A,2447.2546,N,12059.7217,E,8.17,2.62,280921,,,A*6C\r\n'1
b'$GPRMC,074207.000,A,2447.2546,N,12059.7217,E,8.17,2.62,280921,,,A*6C\r\n'1
b'$GPRMC,074207.000,A,2447.2546,N,12059.7217,E,8.17,2.62,280921,,,A*6C\r\n'1
b'$GPGGA,074208.000,2447.2571,N,12059.7215,E,1,09,0.9,101.9,M,15.0,M,,0000*52\r\n'1
b'$GPGGA,074208.000,2447.2571,N,12059.7215,E,1,09,0.9,101.9,M,15.0,M,,0000*52\r\n'1
b'$GPGSA,A,3,23,57,24,18,10,12,25,15,32,,,,2.0,0.9,1.7*33\r\n'1
b'$GPGSA,A,3,23,57,24,18,10,12,25,15,32,,,,2.0,0.9,1.7*33\r\n'1
b'$GPGSA,A,3,23,57,24,18,10,12,25,15,32,,,,2.0,0.9,1.7*33\r\n'1
b'$GPRMC,074208.000,A,2447.2571,N,12059.7215,E,8.68,359.23,280921,,,A*65\r\n'1
b'$GPRMC,074208.000,A,2447.2571,N,12059.7215,E,8.68,359.23,280921,,,A*65\r\n'1
b'$GPGGA,074209.000,2447.2593,N,12059.7219,E,1,09,0.9,101.8,M,15.0,M,,0000*52\r\n'1
b'$GPGGA,074209.000,2447.2593,N,12059.7219,E,1,09,0.9,101.8,M,15.0,M,,0000*52\r\n'1
b'$GPGGA,074209.000,2447.2593,N,12059.7219,E,1,09,0.9,101.8,M,15.0,M,,0000*52\r\n'1
b'$GPGSA,A,3,23,57,24,18,10,12,25,15,32,,,,2.0,0.9,1.7*33\r\n'1
b'$GPGSA,A,3,23,57,24,18,10,12,25,15,32,,,,2.0,0.9,1.7*33\r\n'1
b'$GPRMC,074209.000,A,2447.2593,N,12059.7219,E,7.21,8.04,280921,,,A*64\r\n'1
b'$GPRMC,074209.000,A,2447.2593,N,12059.7219,E,7.21,8.04,280921,,,A*64\r\n'1
b'$GPRMC,074209.000,A,2447.2593,N,12059.7219,E,7.21,8.04,280921,,,A*64\r\n'1
b'$GPGGA,074210.000,2447.2614,N,12059.7226,E,1,09,0.9,101.7,M,15.0,M,,0000*55\r\n'1
b'$GPGGA,074210.000,2447.2614,N,12059.7226,E,1,09,0.9,101.7,M,15.0,M,,0000*55\r\n'1
b'$GPGSA,A,3,23,57,24,18,10,12,25,15,32,,,,2.0,0.9,1.7*33\r\n'1
b'$GPGSA,A,3,23,57,24,18,10,12,25,15,32,,,,2.0,0.9,1.7*33\r\n'1
b'$GPGSA,A,3,23,57,24,18,10,12,25,15,32,,,,2.0,0.9,1.7*33\r\n'1
b'$GPRMC,074210.000,A,2447.2614,N,12059.7226,E,7.25,29.29,280921,,,A*54\r\n'1
b'$GPRMC,074210.000,A,2447.2614,N,12059.7226,E,7.25,29.29,280921,,,A*54\r\n'1
b'$GPGGA,074211.000,2447.2624,N,12059.7245,E,1,09,0.9,101.6,M,15.0,M,,0000*53\r\n'1
b'$GPGGA,074211.000,2447.2624,N,12059.7245,E,1,09,0.9,101.6,M,15.0,M,,0000*53\r\n'1
b'$GPGGA,074211.000,2447.2624,N,12059.7245,E,1,09,0.9,101.6,M,15.0,M,,0000*53\r\n'1
b'$GPGSA,A,3,23,57,24,18,10,12,25,15,32,,,,2.0,0.9,1.7*33\r\n'1
b'$GPGSA,A,3,23,57,24,18,10,12,25,15,32,,,,2.0,0.9,1.7*33\r\n'1
b'$GPGSV,3,1,10,23,72,359,41,57,64,056,36,24,52,033,40,18,42,212,33*79\r\n'1
b'$GPGSV,3,1,10,23,72,359,41,57,64,056,36,24,52,033,40,18,42,212,33*79\r\n'1
b'$GPGSV,3,1,10,23,72,359,41,57,64,056,36,24,52,033,40,18,42,212,33*79\r\n'1
b'$GPGSV,3,2,10,10,38,326,39,12,33,125,14,25,26,161,20,15,25,067,26*7F\r\n'1
b'$GPGSV,3,2,10,10,38,326,39,12,33,125,14,25,26,161,20,15,25,067,26*7F\r\n'1
b'$GPGSV,3,3,10,32,20,288,31,05,08,130,*74\r\n'1
b'$GPGSV,3,3,10,32,20,288,31,05,08,130,*74\r\n'1
b'$GPGSV,3,3,10,32,20,288,31,05,08,130,*74\r\n'1
b'$GPRMC,074211.000,A,2447.2624,N,12059.7245,E,7.44,57.29,280921,,,A*5D\r\n'1
b'$GPRMC,074211.000,A,2447.2624,N,12059.7245,E,7.44,57.29,280921,,,A*5D\r\n'1
b'$GPGGA,074212.000,2447.2629,N,12059.7269,E,1,09,0.9,101.8,M,15.0,M,,0000*5D\r\n'1
b'$GPGGA,074212.000,2447.2629,N,12059.7269,E,1,09,0.9,101.8,M,15.0,M,,0000*5D\r\n'1
b'$GPGGA,074212.000,2447.2629,N,12059.7269,E,1,09,0.9,101.8,M,15.0,M,,0000*5D\r\n'1
b'$GPGSA,A,3,23,57,24,18,10,12,25,15,32,,,,2.0,0.9,1.7*33\r\n'1
b'$GPGSA,A,3,23,57,24,18,10,12,25,15,32,,,,2.0,0.9,1.7*33\r\n'1
b'$GPRMC,074212.000,A,2447.2629,N,12059.7269,E,8.73,78.99,280921,,,A*50\r\n'1
b'$GPRMC,074212.000,A,2447.2629,N,12059.7269,E,8.73,78.99,280921,,,A*50\r\n'1
b'$GPRMC,074212.000,A,2447.2629,N,12059.7269,E,8.73,78.99,280921,,,A*50\r\n'1
b'$GPGGA,074213.000,2447.2628,N,12059.7298,E,1,09,0.9,101.8,M,15.0,M,,0000*53\r\n'1
b'$GPGGA,074213.000,2447.2628,N,12059.7298,E,1,09,0.9,101.8,M,15.0,M,,0000*53\r\n'1
b'$GPGSA,A,3,23,57,24,18,10,12,25,15,32,,,,2.0,0.9,1.7*33\r\n'1
b'$GPGSA,A,3,23,57,24,18,10,12,25,15,32,,,,2.0,0.9,1.7*33\r\n'1
b'$GPGSA,A,3,23,57,24,18,10,12,25,15,32,,,,2.0,0.9,1.7*33\r\n'1
b'$GPRMC,074213.000,A,2447.2628,N,12059.7298,E,10.10,94.71,280921,,,A*66\r\n'1
b'$GPRMC,074213.000,A,2447.2628,N,12059.7298,E,10.10,94.71,280921,,,A*66\r\n'1
b'$GPGGA,074214.000,2447.2624,N,12059.7331,E,1,09,0.9,101.4,M,15.0,M,,0000*56\r\n'1
b'$GPGGA,074214.000,2447.2624,N,12059.7331,E,1,09,0.9,101.4,M,15.0,M,,0000*56\r\n'1
b'$GPGGA,074214.000,2447.2624,N,12059.7331,E,1,09,0.9,101.4,M,15.0,M,,0000*56\r\n'1
b'$GPGSA,A,3,23,57,24,18,10,12,25,15,32,,,,2.0,0.9,1.7*33\r\n'1
b'$GPGSA,A,3,23,57,24,18,10,12,25,15,32,,,,2.0,0.9,1.7*33\r\n'1
b'$GPRMC,074214.000,A,2447.2624,N,12059.7331,E,11.30,95.20,280921,,,A*69\r\n'1
b'$GPRMC,074214.000,A,2447.2624,N,12059.7331,E,11.30,95.20,280921,,,A*69\r\n'1
b'$GPRMC,074214.000,A,2447.2624,N,12059.7331,E,11.30,95.20,280921,,,A*69\r\n'1
b'$GPGGA,074215.000,2447.2623,N,12059.7367,E,1,09,0.9,101.1,M,15.0,M,,0000*56\r\n'1
b'$GPGGA,074215.000,2447.2623,N,12059.7367,E,1,09,0.9,101.1,M,15.0,M,,0000*56\r\n'1
b'$GPGSA,A,3,23,57,24,18,10,12,25,15,32,,,,2.0,0.9,1.7*33\r\n'1
b'$GPGSA,A,3,23,57,24,18,10,12,25,15,32,,,,2.0,0.9,1.7*33\r\n'1
b'$GPGSA,A,3,23,57,24,18,10,12,25,15,32,,,,2.0,0.9,1.7*33\r\n'1
b'$GPRMC,074215.000,A,2447.2623,N,12059.7367,E,12.43,92.17,280921,,,A*68\r\n'1
b'$GPRMC,074215.000,A,2447.2623,N,12059.7367,E,12.43,92.17,280921,,,A*68\r\n'1
b'$GPGGA,074216.000,2447.2622,N,12059.7404,E,1,09,0.9,101.2,M,15.0,M,,0000*55\r\n'1
b'$GPGGA,074216.000,2447.2622,N,12059.7404,E,1,09,0.9,101.2,M,15.0,M,,0000*55\r\n'1
b'$GPGGA,074216.000,2447.2622,N,12059.7404,E,1,09,0.9,101.2,M,15.0,M,,0000*55\r\n'1
b'$GPGSA,A,3,23,57,24,18,10,12,25,15,32,,,,2.0,0.9,1.7*33\r\n'1
b'$GPGSA,A,3,23,57,24,18,10,12,25,15,32,,,,2.0,0.9,1.7*33\r\n'1
b'$GPGSV,3,1,10,23,72,359,40,57,64,056,37,24,52,033,33,18,42,212,26*79\r\n'1
b'$GPGSV,3,1,10,23,72,359,40,57,64,056,37,24,52,033,33,18,42,212,26*79\r\n'1
b'$GPGSV,3,1,10,23,72,359,40,57,64,056,37,24,52,033,33,18,42,212,26*79\r\n'1
b'$GPGSV,3,2,10,10,38,326,36,12,33,125,22,25,26,161,12,15,25,067,28*7A\r\n'1
b'$GPGSV,3,2,10,10,38,326,36,12,33,125,22,25,26,161,12,15,25,067,28*7A\r\n'1
b'$GPGSV,3,3,10,32,20,288,26,05,08,130,*72\r\n'1
b'$GPGSV,3,3,10,32,20,288,26,05,08,130,*72\r\n'1
b'$GPGSV,3,3,10,32,20,288,26,05,08,130,*72\r\n'1
b'$GPRMC,074216.000,A,2447.2622,N,12059.7404,E,12.96,92.80,280921,,,A*6E\r\n'1
b'$GPRMC,074216.000,A,2447.2622,N,12059.7404,E,12.96,92.80,280921,,,A*6E\r\n'1
b'$GPGGA,074217.000,2447.2623,N,12059.7443,E,1,08,1.2,101.3,M,15.0,M,,0000*5C\r\n'1
b'$GPGGA,074217.000,2447.2623,N,12059.7443,E,1,08,1.2,101.3,M,15.0,M,,0000*5C\r\n'1
b'$GPGGA,074217.000,2447.2623,N,12059.7443,E,1,08,1.2,101.3,M,15.0,M,,0000*5C\r\n'1
b'$GPGSA,A,3,23,57,24,18,10,12,25,32,,,,,2.6,1.2,2.2*3D\r\n'1
b'$GPGSA,A,3,23,57,24,18,10,12,25,32,,,,,2.6,1.2,2.2*3D\r\n'1
b'$GPRMC,074217.000,A,2447.2623,N,12059.7443,E,12.89,90.47,280921,,,A*6A\r\n'1
b'$GPRMC,074217.000,A,2447.2623,N,12059.7443,E,12.89,90.47,280921,,,A*6A\r\n'1
b'$GPRMC,074217.000,A,2447.2623,N,12059.7443,E,12.89,90.47,280921,,,A*6A\r\n'1
b'$GPGGA,074218.000,2447.2626,N,12059.7485,E,1,08,1.2,101.5,M,15.0,M,,0000*5A\r\n'1
b'$GPGGA,074218.000,2447.2626,N,12059.7485,E,1,08,1.2,101.5,M,15.0,M,,0000*5A\r\n'1
b'$GPGSA,A,3,23,57,24,18,10,12,25,32,,,,,2.6,1.2,2.2*3D\r\n'1
b'$GPGSA,A,3,23,57,24,18,10,12,25,32,,,,,2.6,1.2,2.2*3D\r\n'1
b'$GPGSA,A,3,23,57,24,18,10,12,25,32,,,,,2.6,1.2,2.2*3D\r\n'1
b'$GPRMC,074218.000,A,2447.2626,N,12059.7485,E,13.55,86.82,280921,,,A*64\r\n'1
b'$GPRMC,074218.000,A,2447.2626,N,12059.7485,E,13.55,86.82,280921,,,A*64\r\n'1
b'$GPGGA,074219.000,2447.2627,N,12059.7529,E,1,08,1.2,101.5,M,15.0,M,,0000*5D\r\n'1
b'$GPGGA,074219.000,2447.2627,N,12059.7529,E,1,08,1.2,101.5,M,15.0,M,,0000*5D\r\n'1
b'$GPGGA,074219.000,2447.2627,N,12059.7529,E,1,08,1.2,101.5,M,15.0,M,,0000*5D\r\n'1
b'$GPGSA,A,3,23,57,24,18,10,12,25,32,,,,,2.6,1.2,2.2*3D\r\n'1
b'$GPGSA,A,3,23,57,24,18,10,12,25,32,,,,,2.6,1.2,2.2*3D\r\n'1
b'$GPRMC,074219.000,A,2447.2627,N,12059.7529,E,14.85,88.50,280921,,,A*68\r\n'1
b'$GPRMC,074219.000,A,2447.2627,N,12059.7529,E,14.85,88.50,280921,,,A*68\r\n'1
b'$GPRMC,074219.000,A,2447.2627,N,12059.7529,E,14.85,88.50,280921,,,A*68\r\n'1
b'$GPGGA,074220.000,2447.2628,N,12059.7576,E,1,08,1.2,101.6,M,15.0,M,,0000*51\r\n'1
b'$GPGGA,074220.000,2447.2628,N,12059.7576,E,1,08,1.2,101.6,M,15.0,M,,0000*51\r\n'1
b'$GPGSA,A,3,23,57,24,18,10,12,25,32,,,,,2.6,1.2,2.2*3D\r\n'1
b'$GPGSA,A,3,23,57,24,18,10,12,25,32,,,,,2.6,1.2,2.2*3D\r\n'1
b'$GPGSA,A,3,23,57,24,18,10,12,25,32,,,,,2.6,1.2,2.2*3D\r\n'1
b'$GPRMC,074220.000,A,2447.2628,N,12059.7576,E,15.30,88.75,280921,,,A*6F\r\n'1
b'$GPRMC,074220.000,A,2447.2628,N,12059.7576,E,15.30,88.75,280921,,,A*6F\r\n'1
b'$GPGGA,074221.000,2447.2634,N,12059.7627,E,1,08,1.2,101.9,M,15.0,M,,0000*55\r\n'1
b'$GPGGA,074221.000,2447.2634,N,12059.7627,E,1,08,1.2,101.9,M,15.0,M,,0000*55\r\n'1
b'$GPGGA,074221.000,2447.2634,N,12059.7627,E,1,08,1.2,101.9,M,15.0,M,,0000*55\r\n'1
b'$GPGSA,A,3,23,57,24,18,10,12,25,32,,,,,2.6,1.2,2.2*3D\r\n'1
b'$GPGSA,A,3,23,57,24,18,10,12,25,32,,,,,2.6,1.2,2.2*3D\r\n'1
b'$GPGSV,3,1,10,23,72,359,40,57,64,056,38,24,52,033,31,18,42,212,23*71\r\n'1
b'$GPGSV,3,1,10,23,72,359,40,57,64,056,38,24,52,033,31,18,42,212,23*71\r\n'1
b'$GPGSV,3,1,10,23,72,359,40,57,64,056,38,24,52,033,31,18,42,212,23*71\r\n'1
b'$GPGSV,3,2,10,10,38,326,27,12,33,125,22,25,26,161,12,32,20,288,27*76\r\n'1
b'$GPGSV,3,2,10,10,38,326,27,12,33,125,22,25,26,161,12,32,20,288,27*76\r\n'1
b'$GPGSV,3,3,10,15,25,067,20,05,08,130,*77\r\n'1
b'$GPGSV,3,3,10,15,25,067,20,05,08,130,*77\r\n'1
b'$GPGSV,3,3,10,15,25,067,20,05,08,130,*77\r\n'1
b'$GPRMC,074221.000,A,2447.2634,N,12059.7627,E,16.11,88.74,280921,,,A*65\r\n'1
b'$GPRMC,074221.000,A,2447.2634,N,12059.7627,E,16.11,88.74,280921,,,A*65\r\n'1
b'$GPGGA,074222.000,2447.2637,N,12059.7683,E,1,09,0.9,102.1,M,15.0,M,,0000*5B\r\n'1
b'$GPGGA,074222.000,2447.2637,N,12059.7683,E,1,09,0.9,102.1,M,15.0,M,,0000*5B\r\n'1
b'$GPGGA,074222.000,2447.2637,N,12059.7683,E,1,09,0.9,102.1,M,15.0,M,,0000*5B\r\n'1
b'$GPGSA,A,3,23,57,24,18,10,12,25,15,32,,,,2.0,0.9,1.7*33\r\n'1
b'$GPGSA,A,3,23,57,24,18,10,12,25,15,32,,,,2.0,0.9,1.7*33\r\n'1
b'$GPRMC,074222.000,A,2447.2637,N,12059.7683,E,17.48,90.97,280921,,,A*62\r\n'1
b'$GPRMC,074222.000,A,2447.2637,N,12059.7683,E,17.48,90.97,280921,,,A*62\r\n'1
b'$GPRMC,074222.000,A,2447.2637,N,12059.7683,E,17.48,90.97,280921,,,A*62\r\n'1
b'$GPGGA,074223.000,2447.2638,N,12059.7744,E,1,09,0.9,101.5,M,15.0,M,,0000*58\r\n'1
b'$GPGGA,074223.000,2447.2638,N,12059.7744,E,1,09,0.9,101.5,M,15.0,M,,0000*58\r\n'1
b'$GPGSA,A,3,23,57,24,18,10,12,25,15,32,,,,2.0,0.9,1.7*33\r\n'1
b'$GPGSA,A,3,23,57,24,18,10,12,25,15,32,,,,2.0,0.9,1.7*33\r\n'1
b'$GPGSA,A,3,23,57,24,18,10,12,25,15,32,,,,2.0,0.9,1.7*33\r\n'1
b'$GPRMC,074223.000,A,2447.2638,N,12059.7744,E,18.25,91.76,280921,,,A*6C\r\n'1
b'$GPRMC,074223.000,A,2447.2638,N,12059.7744,E,18.25,91.76,280921,,,A*6C\r\n'1
b'$GPGGA,074224.000,2447.2634,N,12059.7805,E,1,09,0.9,100.9,M,15.0,M,,0000*54\r\n'1
b'$GPGGA,074224.000,2447.2634,N,12059.7805,E,1,09,0.9,100.9,M,15.0,M,,0000*54\r\n'1
b'$GPGGA,074224.000,2447.2634,N,12059.7805,E,1,09,0.9,100.9,M,15.0,M,,0000*54\r\n'1
b'$GPGSA,A,3,23,57,24,18,10,12,25,15,32,,,,2.0,0.9,1.7*33\r\n'1
b'$GPGSA,A,3,23,57,24,18,10,12,25,15,32,,,,2.0,0.9,1.7*33\r\n'1
b'$GPRMC,074224.000,A,2447.2634,N,12059.7805,E,18.62,94.33,280921,,,A*6A\r\n'1
b'$GPRMC,074224.000,A,2447.2634,N,12059.7805,E,18.62,94.33,280921,,,A*6A\r\n'1
b'$GPRMC,074224.000,A,2447.2634,N,12059.7805,E,18.62,94.33,280921,,,A*6A\r\n'1
b'$GPGGA,074225.000,2447.2630,N,12059.7863,E,1,09,0.9,100.6,M,15.0,M,,0000*5E\r\n'1
b'$GPGGA,074225.000,2447.2630,N,12059.7863,E,1,09,0.9,100.6,M,15.0,M,,0000*5E\r\n'1
b'$GPGSA,A,3,23,57,24,18,10,12,25,15,32,,,,2.0,0.9,1.7*33\r\n'1
b'$GPGSA,A,3,23,57,24,18,10,12,25,15,32,,,,2.0,0.9,1.7*33\r\n'1
b'$GPGSA,A,3,23,57,24,18,10,12,25,15,32,,,,2.0,0.9,1.7*33\r\n'1
b'$GPRMC,074225.000,A,2447.2630,N,12059.7863,E,17.86,97.17,280921,,,A*6F\r\n'1
b'$GPRMC,074225.000,A,2447.2630,N,12059.7863,E,17.86,97.17,280921,,,A*6F\r\n'1
b'$GPGGA,074226.000,2447.2619,N,12059.7919,E,1,08,1.0,99.4,M,15.0,M,,0000*60\r\n'1
b'$GPGGA,074226.000,2447.2619,N,12059.7919,E,1,08,1.0,99.4,M,15.0,M,,0000*60\r\n'1
b'$GPGGA,074226.000,2447.2619,N,12059.7919,E,1,08,1.0,99.4,M,15.0,M,,0000*60\r\n'1
b'$GPGSA,A,3,23,57,24,18,10,12,15,32,,,,,2.1,1.0,1.8*32\r\n'1
b'$GPGSA,A,3,23,57,24,18,10,12,15,32,,,,,2.1,1.0,1.8*32\r\n'1
b'$GPGSV,3,1,10,23,72,359,39,57,64,056,37,24,52,033,40,18,42,212,33*77\r\n'1
b'$GPGSV,3,1,10,23,72,359,39,57,64,056,37,24,52,033,40,18,42,212,33*77\r\n'1
b'$GPGSV,3,1,10,23,72,359,39,57,64,056,37,24,52,033,40,18,42,212,33*77\r\n'1
b'$GPGSV,3,2,10,10,38,326,26,12,33,125,27,15,25,067,30,32,20,288,18*79\r\n'1
b'$GPGSV,3,2,10,10,38,326,26,12,33,125,27,15,25,067,30,32,20,288,18*79\r\n'1
b'$GPGSV,3,3,10,25,26,161,05,05,08,130,*77\r\n'1
b'$GPGSV,3,3,10,25,26,161,05,05,08,130,*77\r\n'1
b'$GPGSV,3,3,10,25,26,161,05,05,08,130,*77\r\n'1
b'$GPRMC,074226.000,A,2447.2619,N,12059.7919,E,18.63,102.82,280921,,,A*5E\r\n'1
b'$GPRMC,074226.000,A,2447.2619,N,12059.7919,E,18.63,102.82,280921,,,A*5E\r\n'1
b'$GPGGA,074227.000,2447.2605,N,12059.7976,E,1,08,1.0,98.8,M,15.0,M,,0000*68\r\n'1
b'$GPGGA,074227.000,2447.2605,N,12059.7976,E,1,08,1.0,98.8,M,15.0,M,,0000*68\r\n'1
b'$GPGGA,074227.000,2447.2605,N,12059.7976,E,1,08,1.0,98.8,M,15.0,M,,0000*68\r\n'1
b'$GPGSA,A,3,23,57,24,18,10,12,15,32,,,,,2.1,1.0,1.8*32\r\n'1
b'$GPGSA,A,3,23,57,24,18,10,12,15,32,,,,,2.1,1.0,1.8*32\r\n'1
b'$GPRMC,074227.000,A,2447.2605,N,12059.7976,E,18.99,104.39,280921,,,A*58\r\n'1
b'$GPRMC,074227.000,A,2447.2605,N,12059.7976,E,18.99,104.39,280921,,,A*58\r\n'1
b'$GPRMC,074227.000,A,2447.2605,N,12059.7976,E,18.99,104.39,280921,,,A*58\r\n'1
b'$GPGGA,074228.000,2447.2590,N,12059.8033,E,1,09,0.9,98.3,M,15.0,M,,0000*6D\r\n'1
b'$GPGGA,074228.000,2447.2590,N,12059.8033,E,1,09,0.9,98.3,M,15.0,M,,0000*6D\r\n'1
b'$GPGSA,A,3,23,57,24,18,10,12,25,15,32,,,,2.0,0.9,1.7*33\r\n'1
b'$GPGSA,A,3,23,57,24,18,10,12,25,15,32,,,,2.0,0.9,1.7*33\r\n'1
b'$GPGSA,A,3,23,57,24,18,10,12,25,15,32,,,,2.0,0.9,1.7*33\r\n'1
b'$GPRMC,074228.000,A,2447.2590,N,12059.8033,E,19.48,104.94,280921,,,A*55\r\n'1
b'$GPRMC,074228.000,A,2447.2590,N,12059.8033,E,19.48,104.94,280921,,,A*55\r\n'1
b'$GPGGA,074229.000,2447.2577,N,12059.8089,E,1,09,0.9,98.0,M,15.0,M,,0000*67\r\n'1
b'$GPGGA,074229.000,2447.2577,N,12059.8089,E,1,09,0.9,98.0,M,15.0,M,,0000*67\r\n'1
b'$GPGGA,074229.000,2447.2577,N,12059.8089,E,1,09,0.9,98.0,M,15.0,M,,0000*67\r\n'1
b'$GPGSA,A,3,23,57,24,18,10,12,25,15,32,,,,2.0,0.9,1.7*33\r\n'1
b'$GPGSA,A,3,23,57,24,18,10,12,25,15,32,,,,2.0,0.9,1.7*33\r\n'1
b'$GPRMC,074229.000,A,2447.2577,N,12059.8089,E,19.13,105.37,280921,,,A*5A\r\n'1
b'$GPRMC,074229.000,A,2447.2577,N,12059.8089,E,19.13,105.37,280921,,,A*5A\r\n'1
b'$GPRMC,074229.000,A,2447.2577,N,12059.8089,E,19.13,105.37,280921,,,A*5A\r\n'1
b'$GPGGA,074230.000,2447.2564,N,12059.8144,E,1,09,0.9,97.6,M,15.0,M,,0000*64\r\n'1
b'$GPGGA,074230.000,2447.2564,N,12059.8144,E,1,09,0.9,97.6,M,15.0,M,,0000*64\r\n'1
b'$GPGSA,A,3,23,57,24,18,10,12,25,15,32,,,,2.0,0.9,1.7*33\r\n'1
b'$GPGSA,A,3,23,57,24,18,10,12,25,15,32,,,,2.0,0.9,1.7*33\r\n'1
b'$GPGSA,A,3,23,57,24,18,10,12,25,15,32,,,,2.0,0.9,1.7*33\r\n'1
b'$GPRMC,074230.000,A,2447.2564,N,12059.8144,E,19.01,103.64,280921,,,A*53\r\n'1
b'$GPRMC,074230.000,A,2447.2564,N,12059.8144,E,19.01,103.64,280921,,,A*53\r\n'1
b'$GPGGA,074231.000,2447.2551,N,12059.8199,E,1,08,1.0,97.4,M,15.0,M,,0000*68\r\n'1
b'$GPGGA,074231.000,2447.2551,N,12059.8199,E,1,08,1.0,97.4,M,15.0,M,,0000*68\r\n'1
b'$GPGGA,074231.000,2447.2551,N,12059.8199,E,1,08,1.0,97.4,M,15.0,M,,0000*68\r\n'1
b'$GPGSA,A,3,23,57,24,18,10,12,15,32,,,,,2.1,1.0,1.8*32\r\n'1
b'$GPGSA,A,3,23,57,24,18,10,12,15,32,,,,,2.1,1.0,1.8*32\r\n'1
b'$GPGSV,3,1,10,23,72,359,38,57,64,056,36,24,52,033,40,18,42,212,18*7E\r\n'1
b'$GPGSV,3,1,10,23,72,359,38,57,64,056,36,24,52,033,40,18,42,212,18*7E\r\n'1
b'$GPGSV,3,1,10,23,72,359,38,57,64,056,36,24,52,033,40,18,42,212,18*7E\r\n'1
b'$GPGSV,3,2,10,10,38,326,36,12,33,125,26,15,25,067,29,32,20,288,18*71\r\n'1
b'$GPGSV,3,2,10,10,38,326,36,12,33,125,26,15,25,067,29,32,20,288,18*71\r\n'1
b'$GPGSV,3,3,10,25,26,161,,05,08,130,*72\r\n'1
b'$GPGSV,3,3,10,25,26,161,,05,08,130,*72\r\n'1
b'$GPGSV,3,3,10,25,26,161,,05,08,130,*72\r\n'1
b'$GPRMC,074231.000,A,2447.2551,N,12059.8199,E,18.08,102.11,280921,,,A*5F\r\n'1
b'$GPRMC,074231.000,A,2447.2551,N,12059.8199,E,18.08,102.11,280921,,,A*5F\r\n'1
b'$GPGGA,074232.000,2447.2542,N,12059.8252,E,1,08,1.0,97.4,M,15.0,M,,0000*6D\r\n'1
b'$GPGGA,074232.000,2447.2542,N,12059.8252,E,1,08,1.0,97.4,M,15.0,M,,0000*6D\r\n'1
b'$GPGGA,074232.000,2447.2542,N,12059.8252,E,1,08,1.0,97.4,M,15.0,M,,0000*6D\r\n'1
b'$GPGSA,A,3,23,57,24,18,10,12,15,32,,,,,2.1,1.0,1.8*32\r\n'1
b'$GPGSA,A,3,23,57,24,18,10,12,15,32,,,,,2.1,1.0,1.8*32\r\n'1
b'$GPRMC,074232.000,A,2447.2542,N,12059.8252,E,17.87,99.53,280921,,,A*67\r\n'1
b'$GPRMC,074232.000,A,2447.2542,N,12059.8252,E,17.87,99.53,280921,,,A*67\r\n'1
b'$GPRMC,074232.000,A,2447.2542,N,12059.8252,E,17.87,99.53,280921,,,A*67\r\n'1
b'$GPGGA,074233.000,2447.2535,N,12059.8305,E,1,08,1.0,97.5,M,15.0,M,,0000*6E\r\n'1
b'$GPGGA,074233.000,2447.2535,N,12059.8305,E,1,08,1.0,97.5,M,15.0,M,,0000*6E\r\n'1
b'$GPGSA,A,3,23,57,24,18,10,12,15,32,,,,,2.1,1.0,1.8*32\r\n'1
b'$GPGSA,A,3,23,57,24,18,10,12,15,32,,,,,2.1,1.0,1.8*32\r\n'1
b'$GPGSA,A,3,23,57,24,18,10,12,15,32,,,,,2.1,1.0,1.8*32\r\n'1
b'$GPRMC,074233.000,A,2447.2535,N,12059.8305,E,17.64,95.66,280921,,,A*62\r\n'1
b'$GPRMC,074233.000,A,2447.2535,N,12059.8305,E,17.64,95.66,280921,,,A*62\r\n'1
b'$GPGGA,074234.000,2447.2531,N,12059.8361,E,1,08,1.0,97.3,M,15.0,M,,0000*69\r\n'1
b'$GPGGA,074234.000,2447.2531,N,12059.8361,E,1,08,1.0,97.3,M,15.0,M,,0000*69\r\n'1
b'$GPGGA,074234.000,2447.2531,N,12059.8361,E,1,08,1.0,97.3,M,15.0,M,,0000*69\r\n'1
b'$GPGSA,A,3,23,57,24,18,10,12,15,32,,,,,2.1,1.0,1.8*32\r\n'1
b'$GPGSA,A,3,23,57,24,18,10,12,15,32,,,,,2.1,1.0,1.8*32\r\n'1
b'$GPRMC,074234.000,A,2447.2531,N,12059.8361,E,17.97,94.02,280921,,,A*6C\r\n'1
b'$GPRMC,074234.000,A,2447.2531,N,12059.8361,E,17.97,94.02,280921,,,A*6C\r\n'1
b'$GPRMC,074234.000,A,2447.2531,N,12059.8361,E,17.97,94.02,280921,,,A*6C\r\n'1
b'$GPGGA,074235.000,2447.2527,N,12059.8418,E,1,08,1.0,97.4,M,15.0,M,,0000*61\r\n'1
b'$GPGGA,074235.000,2447.2527,N,12059.8418,E,1,08,1.0,97.4,M,15.0,M,,0000*61\r\n'1
b'$GPGSA,A,3,23,57,24,18,10,12,15,32,,,,,2.1,1.0,1.8*32\r\n'1
b'$GPGSA,A,3,23,57,24,18,10,12,15,32,,,,,2.1,1.0,1.8*32\r\n'1
b'$GPGSA,A,3,23,57,24,18,10,12,15,32,,,,,2.1,1.0,1.8*32\r\n'1
b'$GPRMC,074235.000,A,2447.2527,N,12059.8418,E,18.67,92.07,280921,,,A*60\r\n'1
b'$GPRMC,074235.000,A,2447.2527,N,12059.8418,E,18.67,92.07,280921,,,A*60\r\n'1
b'$GPGGA,074236.000,2447.2523,N,12059.8476,E,1,08,1.0,97.1,M,15.0,M,,0000*6B\r\n'1
b'$GPGGA,074236.000,2447.2523,N,12059.8476,E,1,08,1.0,97.1,M,15.0,M,,0000*6B\r\n'1
b'$GPGGA,074236.000,2447.2523,N,12059.8476,E,1,08,1.0,97.1,M,15.0,M,,0000*6B\r\n'1
b'$GPGSA,A,3,23,57,24,18,10,12,15,32,,,,,2.1,1.0,1.8*32\r\n'1
b'$GPGSA,A,3,23,57,24,18,10,12,15,32,,,,,2.1,1.0,1.8*32\r\n'1
b'$GPGSV,3,1,10,23,72,359,39,57,64,056,37,24,52,033,36,18,42,212,18*7F\r\n'1
b'$GPGSV,3,1,10,23,72,359,39,57,64,056,37,24,52,033,36,18,42,212,18*7F\r\n'1
b'$GPGSV,3,1,10,23,72,359,39,57,64,056,37,24,52,033,36,18,42,212,18*7F\r\n'1
b'$GPGSV,3,2,10,10,38,326,32,12,33,125,27,15,25,067,24,32,20,288,20*72\r\n'1
b'$GPGSV,3,2,10,10,38,326,32,12,33,125,27,15,25,067,24,32,20,288,20*72\r\n'1
b'$GPGSV,3,3,10,25,26,161,,05,08,130,*72\r\n'1
b'$GPGSV,3,3,10,25,26,161,,05,08,130,*72\r\n'1
b'$GPGSV,3,3,10,25,26,161,,05,08,130,*72\r\n'1
b'$GPRMC,074236.000,A,2447.2523,N,12059.8476,E,18.99,91.13,280921,,,A*68\r\n'1
b'$GPRMC,074236.000,A,2447.2523,N,12059.8476,E,18.99,91.13,280921,,,A*68\r\n'1
b'$GPGGA,074237.000,2447.2519,N,12059.8533,E,1,08,1.0,96.7,M,15.0,M,,0000*64\r\n'1
b'$GPGGA,074237.000,2447.2519,N,12059.8533,E,1,08,1.0,96.7,M,15.0,M,,0000*64\r\n'1
b'$GPGGA,074237.000,2447.2519,N,12059.8533,E,1,08,1.0,96.7,M,15.0,M,,0000*64\r\n'1
